INSTNM,CITY,STABBR,ZIP,CARNEGIESIZE,INSTSIZE,LONGITUD,LATITUDE
Alabama A & M University,Normal,AL,35762,3,3,-86.568502,34.783368
University of Alabama at Birmingham,Birmingham,AL,35294-0110,4,5,-86.799345,33.505697
Amridge University,Montgomery,AL,36117-3553,2,1,-86.17401,32.362609
University of Alabama in Huntsville,Huntsville,AL,35899,3,3,-86.640449,34.724557
Alabama State University,Montgomery,AL,36104-0271,3,2,-86.295677,32.364317
University of Alabama System Office,Tuscaloosa,AL,35401,-2,-2,-87.529594,33.207015
The University of Alabama,Tuscaloosa,AL,35487-0100,5,5,-87.545978,33.211875
Central Alabama Community College,Alexander City,AL,35010,2,2,-85.945266,32.92478
Athens State University,Athens,AL,35611,2,2,-86.964698,34.806793
Auburn University at Montgomery,Montgomery,AL,36117-3596,3,3,-86.177544,32.36736
Auburn University,Auburn,AL,36849,4,5,-85.488258,32.599378
Birmingham-Southern College,Birmingham,AL,35254,2,-2,-86.850552,33.513774
Chattahoochee Valley Community College,Phenix City,AL,36869,2,2,-85.031485,32.42391
South University-Montgomery,Montgomery,AL,36116,2,1,-86.216488,32.342684
Enterprise State Community College,Enterprise,AL,36330-1300,2,2,-85.836956,31.297496
Coastal Alabama Community College,Bay Minette,AL,36507-2698,3,3,-87.778193,30.851343
Faulkner University,Montgomery,AL,36109-3390,2,2,-86.21641,32.384181
Gadsden State Community College,Gadsden,AL,35903,3,3,-85.991438,33.994001
New Beginning College of Cosmetology,Albertville,AL,35951,-2,1,-86.196931,34.27871
George C Wallace Community College-Dothan,Dothan,AL,36303-9234,3,2,-85.465836,31.315274
George C Wallace State Community College-Hanceville,Hanceville,AL,35077-2000,3,3,-86.781935,34.072439
George C Wallace State Community College-Selma,Selma,AL,36702-2808,2,2,-87.013294,32.445917
Herzing University-Birmingham,Birmingham,AL,35209,2,1,-86.832465,33.468466
Huntingdon College,Montgomery,AL,36106-2148,2,1,-86.284366,32.351034
Heritage Christian University,Florence,AL,35630-9977,1,1,-87.663051,34.856153
J. F. Drake State Community and Technical College,Huntsville,AL,35811,2,2,-86.572885,34.771858
J F Ingram State Technical College,Deatsville,AL,36022,-2,1,-86.392369,32.582312
Jacksonville State University,Jacksonville,AL,36265,3,3,-85.765321,33.822938
Jefferson State Community College,Birmingham,AL,35215-3098,3,3,-86.707233,33.652535
John C Calhoun State Community College,Tanner,AL,35671,3,3,-86.949674,34.645844
Lawson State Community College,Birmingham,AL,35221-1717,3,2,-86.888844,33.450814
University of West Alabama,Livingston,AL,35470,3,3,-88.186329,32.588132
Lurleen B Wallace Community College,Andalusia,AL,36420-1224,2,2,-86.452262,31.322947
Marion Military Institute,Marion,AL,36756-3207,1,1,-87.322041,32.623734
Miles College,Fairfield,AL,35064-2621,2,2,-86.908751,33.482442
University of Mobile,Mobile,AL,36613-2842,2,2,-88.128934,30.793247
University of Montevallo,Montevallo,AL,35115-6000,2,2,-86.865099,33.10625
Northwest Shoals Community College,Muscle Shoals,AL,35661,3,2,-87.678089,34.739788
University of North Alabama,Florence,AL,35632-0001,3,4,-87.680407,34.80731
Northeast Alabama Community College,Rainsville,AL,35986,2,2,-85.911664,34.545471
Oakwood University,Huntsville,AL,35896,2,2,-86.652705,34.756344
Reid State Technical College,Evergreen,AL,36401,2,1,-86.964797,31.460265
Bishop State Community College,Mobile,AL,36603-5898,2,2,-88.056982,30.693972
Samford University,Birmingham,AL,35229-2240,3,3,-86.791799,33.464128
Selma University,Selma,AL,36701,1,1,-87.032392,32.420387
Shelton State Community College,Tuscaloosa,AL,35405-8522,3,2,-87.56148,33.120531
Snead State Community College,Boaz,AL,35957-0734,3,2,-86.169897,34.201495
University of South Alabama,Mobile,AL,36688-0002,3,4,-88.178711,30.696033
Spring Hill College,Mobile,AL,36608-1780,2,1,-88.138199,30.694751
Stillman College,Tuscaloosa,AL,35401,2,1,-87.585278,33.200006
Talladega College,Talladega,AL,35160,2,1,-86.112704,33.433472
H Councill Trenholm State Community College,Montgomery,AL,36108-3199,2,2,-86.343057,32.350109
Troy University,Troy,AL,36082-0001,3,4,-85.95802,31.799583
Tuskegee University,Tuskegee,AL,36088-1920,2,2,-85.708492,32.4309
United States Sports University,Daphne,AL,36526-7055,1,1,-87.91163,30.639329
Bevill State Community College,Jasper,AL,35501,3,2,-87.265258,33.837056
University of Alaska Anchorage,Anchorage,AK,99508,3,4,-149.82619,61.190163
Alaska Bible College,Palmer,AK,99645,1,1,-149.111972,61.598553
University of Alaska Fairbanks,Fairbanks,AK,99775,3,3,-147.823146,64.85756
University of Alaska Southeast,Juneau,AK,99801-8697,2,2,-134.638255,58.384846
Alaska Pacific University,Anchorage,AK,99508,2,1,-149.804168,61.190968
Alaska Vocational Technical Center,Seward,AK,99664-0889,-2,1,-149.444487,60.110626
Charter College,Anchorage,AK,99508-4103,2,2,-149.839274,61.19633
Alaska Career College,Anchorage,AK,99507-1033,1,1,-149.856954,61.181443
University of Alaska System of Higher Education,Fairbanks,AK,99775-5000,-2,-2,-147.848969,64.857516
Empire Beauty School-Tucson,Tucson,AZ,85716,-2,1,-110.927187,32.235657
Carrington College-Phoenix North,Phoenix,AZ,85051-4063,2,2,-112.104601,33.565758
Carrington College-Mesa,Mesa,AZ,85210-5005,2,1,-111.853218,33.39248
Carrington College-Tucson,Tucson,AZ,85745-2974,2,1,-110.983056,32.224391
Arizona Academy of Beauty,Tucson,AZ,85712,-2,1,-110.872305,32.237253
Miller-Motte College-Arizona Automotive Institute,Glendale,AZ,85301-3579,2,1,-112.157344,33.537249
Brookline College-Phoenix,Phoenix,AZ,85021,2,1,-112.112473,33.566102
Arizona State University Campus Immersion,Tempe,AZ,85287,5,5,-111.934383,33.417721
Arizona Western College,Yuma,AZ,85365-8834,3,3,-114.495968,32.689306
University of Arizona,Tucson,AZ,85721-0066,5,5,-110.950815,32.232672
Central Arizona College,Coolidge,AZ,85128-9030,3,3,-111.652501,32.957092
Charles of Italy Beauty College,Lake Havasu City,AZ,86403,-2,1,-114.332686,34.477485
Cochise County Community College District,Sierra Vista,AZ,85635-2317,3,2,-110.246946,31.564597
Empire Beauty School-Chandler,Chandler,AZ,85224,-2,1,-111.860423,33.347586
Avalon Institute-Mesa,Mesa,AZ,85210,-2,1,-111.858305,33.376583
Eastern Arizona College,Thatcher,AZ,85552-0769,3,3,-109.76234,32.843664
Embry-Riddle Aeronautical University-Prescott,Prescott,AZ,86301-3720,2,2,-112.449741,34.616766
The School of Architecture,Scottsdale,AZ,85250,1,1,-111.916785,33.524271
Glendale Community College,Glendale,AZ,85302,4,4,-112.190735,33.570226
Grand Canyon University,Phoenix,AZ,85017,5,5,-112.129929,33.513231
Maricopa Community College System Office,Tempe,AZ,85281-6942,-2,-2,-111.975786,33.412915
GateWay Community College,Phoenix,AZ,85034,3,3,-111.997077,33.449686
Mesa Community College,Mesa,AZ,85202,4,4,-111.871255,33.390323
Mohave Community College,Kingman,AZ,86409-1238,3,2,-114.029838,35.270996
Universal Technical Institute-Phoenix,Avondale,AZ,85323,2,1,-112.288123,33.453005
Dine College,Tsaile,AZ,86556,2,2,-109.21684,36.293328
Northern Arizona University,Flagstaff,AZ,86011-4092,4,5,-111.653724,35.188449
Northland Pioneer College,Holbrook,AZ,86025-0610,3,2,-110.142199,34.93031
Phoenix College,Phoenix,AZ,85013,3,4,-112.088293,33.481361
Pima Community College,Tucson,AZ,85709-1275,4,4,-110.886659,32.222125
Pima Medical Institute-Tucson,Tucson,AZ,85712,2,2,-110.878783,32.248067
Pima Medical Institute-Albuquerque,Albuquerque,NM,87110,2,1,-106.59488,35.104855
Prescott College,Prescott,AZ,86301,2,1,-112.477185,34.5452
Refrigeration School Inc,Phoenix,AZ,85034-1816,2,2,-111.989357,33.448692
Rio Salado College,Tempe,AZ,85281,4,4,-111.97417,33.413309
Roberto-Venn School of Luthiery,Phoenix,AZ,85007,-2,1,-112.086161,33.45489
Scottsdale Community College,Scottsdale,AZ,85256,3,3,-111.885186,33.51135
South Mountain Community College,Phoenix,AZ,85042,3,2,-112.032635,33.382406
Arizona Christian University,Glendale,AZ,85306-3216,2,2,-112.181776,33.622952
Universal Technical Institute of Arizona Inc,Avondale,AZ,85323,2,2,-112.288123,33.453005
Yavapai College,Prescott,AZ,86301,3,3,-112.453395,34.547495
University of Arkansas at Little Rock,Little Rock,AR,72204,3,3,-92.339778,34.723254
University of Arkansas for Medical Sciences,Little Rock,AR,72205-7199,2,2,-92.322348,34.750152
Arkansas Baptist College,Little Rock,AR,72202-6068,2,1,-92.290555,34.734751
Arkansas Beauty School-Little Rock,Little Rock,AR,72209,-2,1,-92.343366,34.672171
Arkansas Beauty College,Russellville,AR,72801,-2,1,-93.135369,35.27902
Lyon College,Batesville,AR,72501,2,1,-91.625354,35.777619
Arkansas Technical School,North Little Rock,AR,72114,-2,1,-92.266429,34.753843
University of Arkansas,Fayetteville,AR,72701,4,5,-94.176981,36.070009
University of Arkansas at Pine Bluff,Pine Bluff,AR,71601,2,2,-92.018683,34.244031
Arkansas State University-Beebe,Beebe,AR,72012-1000,2,2,-91.895351,35.074176
Arkansas State University,Jonesboro,AR,72401,3,4,-90.679988,35.842388
Arkansas Tech University,Russellville,AR,72801,3,3,-93.137172,35.296091
University of Arkansas at Monticello,Monticello,AR,71656,2,2,-91.811153,33.590909
Arthur's Beauty College,Jacksonville,AR,72076,-2,1,-92.102579,34.891572
Baptist Health College Little Rock,Little Rock,AR,72210-2827,2,1,-92.40692,34.713115
Black River Technical College,Pocahontas,AR,72455,2,2,-90.951033,36.239793
University of Central Arkansas,Conway,AR,72035-0001,3,4,-92.457672,35.077945
Central Baptist College,Conway,AR,72034,2,1,-92.445021,35.083838
Cossatot Community College of the University of Arkansas,De Queen,AR,71832,2,2,-94.3673,34.043389
Crowley's Ridge College,Paragould,AR,72450,1,1,-90.584395,36.064845
East Arkansas Community College,Forrest City,AR,72335-2204,2,2,-90.767726,35.041655
Paul Mitchell the School-Little Rock,North Little Rock,AR,72117,-2,1,-92.222202,34.789913
National Park College,Hot Springs,AR,71913,2,2,-93.119248,34.512687
University of Arkansas Community College-Batesville,Batesville,AR,72503-3350,2,2,-91.615852,35.792923
Harding University,Searcy,AR,72149-5615,3,2,-91.726143,35.247386
Henderson State University,Arkadelphia,AR,71999-0001,2,2,-93.059703,34.128155
Hendrix College,Conway,AR,72032-3080,2,2,-92.443256,35.101565
Hot Springs Beauty College,Hot Springs,AR,71901,-2,1,-93.037277,34.496057
Jefferson Regional School of Nursing,Pine Bluff,AR,71603,1,1,-92.05568,34.191628
John Brown University,Siloam Springs,AR,72761,2,2,-94.560283,36.189812
Career Academy of Hair Design,Springdale,AR,72764-7128,-2,1,-94.12947,36.167605
Academy of Salon and Spa,Fort Smith,AR,72901,-2,1,-94.41616,35.38097
Arkansas State University Mid-South,West Memphis,AR,72301-3829,2,2,-90.22285,35.145736
Arkansas Northeastern College,Blytheville,AR,72316-1109,2,2,-89.921005,35.898597
New Tyler Barber College Inc,North Little Rock,AR,72114-4973,-2,1,-92.254171,34.760085
North Arkansas College,Harrison,AR,72601-5508,2,2,-93.08844,36.219909
Northwest Technical Institute,Springdale,AR,72764,-2,1,-94.115346,36.178032
Ouachita Baptist University,Arkadelphia,AR,71998-0001,2,2,-93.052471,34.126093
Arkansas State University Three Rivers,Malvern,AR,72104-0816,2,2,-92.821416,34.378745
Ozarka College,Melbourne,AR,72556-0010,2,2,-91.896355,36.053031
University of the Ozarks,Clarksville,AR,72830,2,1,-93.467221,35.476278
University of Arkansas Community College-Morrilton,Morrilton,AR,72110,2,2,-92.728507,35.172136
Philander Smith University,Little Rock,AR,72202-3799,2,1,-92.283015,34.737131
Phillips Community College of the University of Arkansas,Helena,AR,72342-0785,2,2,-90.616884,34.546155
Southeast Arkansas College,Pine Bluff,AR,71603,2,1,-92.025936,34.210309
University of Aesthetics & Cosmetology,El Dorado,AR,71730-4009,-2,1,-92.664101,33.216032
University of Arkansas-Pulaski Technical College,North Little Rock,AR,72118-3347,3,2,-92.299184,34.782783
University of Arkansas Hope-Texarkana,Hope,AR,71801,2,2,-93.596762,33.641665
University of Arkansas Community College Rich Mountain,Mena,AR,71953,2,1,-94.219799,34.591449
Paul Mitchell the School-Arkansas,Fayetteville,AR,72703,-2,1,-94.153892,36.126373
Searcy Beauty College,Searcy,AR,72143,-2,1,-91.735135,35.239148
Shorter College,N Little Rock,AR,72114,1,1,-92.261331,34.75933
Williams Baptist University,Walnut Ridge,AR,72476,2,1,-90.940277,36.125676
South Arkansas College,El Dorado,AR,71731-7010,2,2,-92.666087,33.209446
Southern Arkansas University Main Campus,Magnolia,AR,71753,3,2,-93.235922,33.291618
Southern Arkansas University Tech,Camden,AR,71701-1906,2,1,-92.721629,33.628367
University of Arkansas System Office,Little Rock,AR,72207-3608,-2,-2,-92.343582,34.775996
Velvatex College of Beauty Culture,Little Rock,AR,72202-5452,-2,1,-92.289597,34.735685
University of Arkansas-Fort Smith,Fort Smith,AR,72913-3649,3,3,-94.373729,35.384184
Academy of Art University,San Francisco,CA,94105,3,3,-122.400578,37.787943
Academy of Chinese Culture and Health Sciences,Oakland,CA,94612,1,1,-122.269839,37.805972
College of Alameda,Alameda,CA,94501,3,3,-122.279303,37.781017
Allan Hancock College,Santa Maria,CA,93454-6399,3,4,-120.421144,34.943716
American Academy of Dramatic Arts-Los Angeles,Los Angeles,CA,90028,1,1,-118.343701,34.095378
Berkeley School of Theology,Berkeley,CA,94704-3029,1,1,-122.256149,37.865252
American Film Institute Conservatory,Los Angeles,CA,90027-1625,1,1,-118.310018,34.10767
American Beauty College,West Covina,CA,91790,-2,1,-117.936959,34.069367
American Career College-Los Angeles,Los Angeles,CA,90004,2,2,-118.292481,34.079323
American River College,Sacramento,CA,95841-4286,5,5,-121.349672,38.65085
Antelope Valley Community College District,Lancaster,CA,93536-5426,3,4,-118.186166,34.676207
Art Center College of Design,Pasadena,CA,91103,2,2,-118.185102,34.169031
Associated Technical College-Los Angeles,Los Angeles,CA,90017-1604,-2,1,-118.272364,34.056102
Associated Technical College-San Diego,San Diego,CA,92108-1630,-2,-2,-117.135196,32.773178
Azusa Pacific University,Azusa,CA,91702-7000,3,3,-117.888375,34.130047
Bakersfield College,Bakersfield,CA,93305-1299,4,5,-118.973753,35.40911
Barstow Community College,Barstow,CA,92311,2,2,-117.023412,34.870285
Bellus Academy-Chula Vista,Chula Vista,CA,91911,-2,1,-117.083738,32.614773
Bethesda University,Anaheim,CA,92801,1,1,-117.941323,33.842295
Biola University,La Mirada,CA,90639-0001,3,3,-118.014374,33.906203
Brownson Technical School,Anaheim,CA,92805,-2,1,-117.905774,33.819032
Bryan University,Tempe,AZ,85281,2,2,-111.944197,33.437779
Butte College,Oroville,CA,95965-8399,3,4,-121.644831,39.649782
California Institute of Integral Studies,San Francisco,CA,94103,2,2,-122.416102,37.774924
Cabrillo College,Aptos,CA,95003,3,3,-121.924797,36.989448
California Baptist University,Riverside,CA,92504-3297,3,4,-117.425619,33.929321
California College of the Arts,San Francisco,CA,94107-2247,2,2,-122.399451,37.767485
University of California College of the Law-San Francisco,San Francisco,CA,94102-4978,2,2,-122.4157,37.781137
California Institute of Technology,Pasadena,CA,91125,2,2,-118.125878,34.137349
California Lutheran University,Thousand Oaks,CA,91360-2787,3,2,-118.878924,34.224566
California Polytechnic State University-San Luis Obispo,San Luis Obispo,CA,93407,4,5,-120.657311,35.299513
Alliant International University-San Diego,San Diego,CA,92131,3,2,-117.094398,32.897056
California State University-Bakersfield,Bakersfield,CA,93311-1099,3,4,-119.104711,35.350005
California State University-Stanislaus,Turlock,CA,95382-0299,3,3,-120.852511,37.52577
California State University-Chancellors Office,Long Beach,CA,90802-4210,-2,-2,-118.201255,33.764338
California State University-San Bernardino,San Bernardino,CA,92407-2393,4,4,-117.323801,34.182622
California State Polytechnic University-Pomona,Pomona,CA,91768,4,5,-117.821476,34.057912
California State University-Chico,Chico,CA,95929-0150,3,4,-121.844859,39.729712
California State University-Dominguez Hills,Carson,CA,90747-0005,3,4,-118.255917,33.864766
California State University-Fresno,Fresno,CA,93740,4,5,-119.744569,36.811154
California State University-Fullerton,Fullerton,CA,92832-3599,5,5,-117.885446,33.881506
California State University-East Bay,Hayward,CA,94542,3,4,-122.054135,37.657694
California State University-Long Beach,Long Beach,CA,90840-0115,5,5,-118.11204,33.782818
California State University-Los Angeles,Los Angeles,CA,90032-8506,4,5,-118.168965,34.066927
California State University-Northridge,Northridge,CA,91330,5,5,-118.529319,34.240126
California State University-Sacramento,Sacramento,CA,95819-2694,4,5,-121.423549,38.559415
University of California-Berkeley,Berkeley,CA,94720,5,5,-122.260463,37.871918
University of California-Davis,Davis,CA,95616-8678,5,5,-121.749567,38.539667
University of California-Irvine,Irvine,CA,92697,4,5,-117.841248,33.648434
University of California-Los Angeles,Los Angeles,CA,90095-1405,5,5,-118.442179,34.07178
University of California-Riverside,Riverside,CA,92521,4,5,-117.32741,33.97246
University of California-San Diego,La Jolla,CA,92093,5,5,-117.235866,32.877749
University of California-San Francisco,San Francisco,CA,94143-0244,2,2,-122.458489,37.763737
University of California-Santa Barbara,Santa Barbara,CA,93106,4,5,-119.846426,34.416297
University of California-Santa Cruz,Santa Cruz,CA,95064-1011,4,4,-122.058801,36.995584
Sofia University,Palo Alto,CA,94303,2,2,-122.10866,37.430325
California Beauty College,Modesto,CA,95354,-2,1,-120.997481,37.645371
Haven University,Garden Grove,CA,92840-1340,1,1,-117.939412,33.777392
California Hair Design Academy,La Mesa,CA,91942-5055,-2,1,-117.024261,32.765221
California Institute of the Arts,Valencia,CA,91355-2397,2,2,-118.566837,34.39327
California State University Maritime Academy,Vallejo,CA,94590-8181,2,1,-122.231551,38.069061
California Western School of Law,San Diego,CA,92101-3046,2,1,-117.162416,32.722192
Canada College,Redwood City,CA,94061-1099,3,3,-122.265398,37.44877
College of the Canyons,Santa Clarita,CA,91355-1899,4,4,-118.568698,34.403993
Career Academy of Beauty,Garden Grove,CA,92845,-2,1,-118.031697,33.781018
Casa Loma College-Los Angeles,Sherman Oaks,CA,91403,1,1,-118.466548,34.155096
CET-San Diego,San Diego,CA,92102,-2,1,-117.105328,32.711302
CET-San Jose,San Jose,CA,95110,-2,1,-121.88698,37.322723
CET-El Centro,El Centro,CA,92243,-2,1,-115.549079,32.790908
CET-Colton,Colton,CA,92324,-2,1,-117.353488,34.077381
CET-Watsonville,Watsonville,CA,95076,-2,1,-121.767991,36.931833
CET-Salinas,Salinas,CA,93906,-2,1,-121.65236,36.707333
Cerritos College,Norwalk,CA,90650-6298,4,5,-118.097337,33.886874
Cerro Coso Community College,Ridgecrest,CA,93555-9571,3,3,-117.66767,35.567525
Chabot College,Hayward,CA,94545,3,4,-122.105636,37.642458
Chaffey College,Rancho Cucamonga,CA,91737-3002,4,5,-117.573932,34.147663
Chapman University,Orange,CA,92866,3,3,-117.852518,33.79302
Charles R Drew University of Medicine and Science,Los Angeles,CA,90059,2,1,-118.242791,33.925658
Concordia University-Irvine,Irvine,CA,92612-3203,3,2,-117.812305,33.653665
San Diego Christian College,Santee,CA,92071,2,1,-116.978089,32.843454
Church Divinity School of the Pacific,Berkeley,CA,94709-1211,1,1,-122.261122,37.876184
Citrus College,Glendora,CA,91741-1899,3,4,-117.886469,34.13537
Citrus Heights Beauty College,Citrus Heights,CA,95610-1410,-2,1,-121.289529,38.712951
City College of San Francisco,San Francisco,CA,94112-1898,4,4,-122.451155,37.725953
Claremont Graduate University,Claremont,CA,91711-6160,2,2,-117.713703,34.103585
Claremont McKenna College,Claremont,CA,91711-6400,2,2,-117.711188,34.102154
Milan Institute-Visalia,Visalia,CA,93277,-2,1,-119.312151,36.27164
Clovis Adult Education,Clovis,CA,93611,-2,1,-119.690369,36.834459
Coast Community College District Office,Costa Mesa,CA,92626,-2,-2,-117.916066,33.674004
Coastline Community College,Fountain Valley,CA,92708-2597,3,3,-117.928979,33.716054
University of Silicon Valley,San Jose,CA,95134,2,1,-121.94087,37.414049
Coba Academy,Anaheim,CA,92801,-2,1,-117.943108,33.841141
Western University of Health Sciences,Pomona,CA,91766-1854,3,2,-117.747732,34.058092
Columbia College,Sonora,CA,95370,2,2,-120.388385,38.030367
California College of ASU,Los Angeles,CA,90015,2,1,-118.25968,34.039355
Compton College,Compton,CA,90221-5393,3,3,-118.209463,33.878226
Contra Costa Community College District Office,Martinez,CA,94553,-2,-2,-122.135335,38.019072
Contra Costa College,San Pablo,CA,94806,3,3,-122.337377,37.969381
Cosumnes River College,Sacramento,CA,95823-5799,4,4,-121.423108,38.45295
Crafton Hills College,Yucaipa,CA,92339-1799,3,3,-117.101173,34.039178
Cuesta College,San Luis Obispo,CA,93403-8106,3,4,-120.742235,35.331276
Cuyamaca College,El Cajon,CA,92019,3,3,-116.942854,32.744305
Cypress College,Cypress,CA,90630-5897,3,4,-118.025143,33.82833
De Anza College,Cupertino,CA,95014,4,4,-122.045783,37.319914
International School of Beauty Inc,Palm Desert,CA,92260-2740,-2,1,-116.403928,33.729555
College of the Desert,Palm Desert,CA,92260,3,4,-116.388271,33.732108
Design Institute of San Diego,San Diego,CA,92121,1,1,-117.167374,32.880926
DHARMA REALM BUDDHIST UNIVERSITY,Ukiah,CA,95482-6050,-2,1,-123.158174,39.134532
Diablo Valley College,Pleasant Hill,CA,94523,4,4,-122.073142,37.968516
Dominican University of California,San Rafael,CA,94901-2298,2,2,-122.512051,37.981279
Dominican School of Philosophy & Theology,Berkeley,CA,94708-1816,1,1,-122.264612,37.881099
East Los Angeles College,Monterey Park,CA,91754-6099,5,5,-118.148785,34.040531
El Camino Community College District,Torrance,CA,90506,4,5,-118.329913,33.885229
Emperor's College of Traditional Oriental Medicine,Santa Monica,CA,90403,1,1,-118.485119,34.030438
Evergreen Valley College,San Jose,CA,95135-1598,3,3,-121.76561,37.30167
FIDM-Fashion Institute of Design & Merchandising,Los Angeles,CA,90015-1421,2,1,-118.25993,34.044209
Feather River Community College District,Quincy,CA,95971-9124,2,2,-120.973067,39.953101
Federico Beauty Institute,Sacramento,CA,95834,-2,1,-121.497761,38.64883
Fielding Graduate University,Santa Barbara,CA,93105-3538,2,1,-119.717161,34.42941
Five Branches University,Santa Cruz,CA,95062,1,1,-121.998245,36.964348
Redondo Beach Beauty College,Torrance,CA,90505,-2,1,-118.35009,33.809096
Foothill College,Los Altos Hills,CA,94022,4,4,-122.127964,37.361655
Franciscan School of Theology,San Diego,CA,92110,1,1,-117.192073,32.770816
Fredrick and Charles Beauty College,Eureka,CA,95501,-2,1,-124.164986,40.798885
Fresno City College,Fresno,CA,93741,4,5,-119.796096,36.768164
Fresno Pacific University,Fresno,CA,93702-4709,3,2,-119.735199,36.726831
Foothill-De Anza Community College District,Los Altos Hills,CA,94022-4599,-2,-2,-122.127964,37.361655
Fuller Theological Seminary,Pasadena,CA,91182,2,2,-118.140261,34.14778
Fullerton College,Fullerton,CA,92832-2095,4,4,-117.918255,33.875514
Gavilan College,Gilroy,CA,95020,3,3,-121.569842,36.972627
Gemological Institute of America-Carlsbad,Carlsbad,CA,92008,-2,1,-117.318765,33.131313
Glendale Community College,Glendale,CA,91208-2894,3,4,-118.227666,34.16745
Glendale Career College,Glendale,CA,91203,2,1,-118.254719,34.149771
Golden Gate University,San Francisco,CA,94105-2968,2,2,-122.398969,37.789374
Golden West College,Huntington Beach,CA,92647-2710,3,4,-118.002568,33.732531
Graduate Theological Union,Berkeley,CA,94709,1,1,-122.261847,37.87554
Grossmont-Cuyamaca Community College District,El Cajon,CA,92020-1799,-2,-2,-117.006277,32.815246
Grossmont College,El Cajon,CA,92020-1799,3,4,-117.006277,32.815246
Salon Success Academy-Riverside,Riverside,CA,92506,-2,1,-117.391024,33.943149
Hartnell College,Salinas,CA,93901,3,4,-121.666054,36.675091
Harvey Mudd College,Claremont,CA,91711,2,1,-117.709837,34.106515
Hilltop Beauty School,Daly City,CA,94014,-2,1,-122.461467,37.705502
Pacifica Graduate Institute,Carpinteria,CA,93013,2,1,-119.580414,34.420881
California State Polytechnic University-Humboldt,Arcata,CA,95521-8299,3,3,-124.078293,40.877481
Humphreys University-Stockton and Modesto Campuses,Stockton,CA,95207,2,1,-121.316918,38.011489
Imperial Valley College,Imperial,CA,92251-0158,3,3,-115.503563,32.827209
Institute for Business and Technology,San Jose,CA,95134-1620,-2,1,-121.943094,37.411098
Interior Designers Institute,Newport Beach,CA,92660,1,1,-117.865722,33.641393
Irvine Valley College,Irvine,CA,92618-0301,3,4,-117.777539,33.675381
Bellus Academy-El Cajon,El Cajon,CA,92021,-2,1,-116.94627,32.794072
American Jewish University,Los Angeles,CA,90077-1519,1,1,-118.471706,34.128153
Reedley College,Reedley,CA,93654,3,3,-119.458555,36.605428
Life Pacific University,San Dimas,CA,91773-3298,2,1,-117.829388,34.098705
University of La Verne,La Verne,CA,91750-4401,3,3,-117.773262,34.100855
Laguna College of Art and Design,Laguna Beach,CA,92651,2,1,-117.772564,33.561448
Lake Tahoe Community College,South Lake Tahoe,CA,96150,3,2,-119.972574,38.926797
Lancaster Beauty School,Lancaster,CA,93534,-2,1,-118.147547,34.694914
Laney College,Oakland,CA,94607,3,3,-122.26283,37.797257
Lassen Community College,Susanville,CA,96130,2,2,-120.633271,40.432053
Latin American Bible Institute,La Puente,CA,91746-3099,1,1,-117.989601,34.030992
Life Chiropractic College West,Hayward,CA,94545-2570,2,1,-122.117619,37.638099
Lincoln University,Oakland,CA,94612-2801,2,1,-122.269745,37.804788
Southern California Seminary,El Cajon,CA,92019-1108,1,1,-116.905461,32.799614
La Sierra University,Riverside,CA,92505-8247,2,2,-117.500054,33.910704
Loma Linda University,Loma Linda,CA,92350,3,2,-117.260605,34.051241
Long Beach City College,Long Beach,CA,90808-1706,4,5,-118.135633,33.833593
Southern California University of Health Sciences,Whittier,CA,90604,2,2,-117.983401,33.922966
Los Angeles Community College District Office,Los Angeles,CA,90017,-2,-2,-118.258047,34.048969
Los Angeles Harbor College,Wilmington,CA,90744-2397,3,3,-118.283549,33.785825
Los Angeles Pierce College,Woodland Hills,CA,91371-0002,4,4,-118.575071,34.183949
Los Angeles Southwest College,Los Angeles,CA,90047-4899,3,3,-118.304674,33.929586
Los Angeles Trade Technical College,Los Angeles,CA,90015-4181,3,4,-118.269447,34.031907
Los Angeles Valley College,Valley Glen,CA,91401-4096,4,4,-118.421734,34.175165
The Master's University and Seminary,Santa Clarita,CA,91321-1200,2,2,-118.518193,34.381755
Los Angeles City College,Los Angeles,CA,90029,4,4,-118.292169,34.087301
Los Angeles County College of Nursing and Allied Health,Los Angeles,CA,90033-1084,1,1,-118.211852,34.062647
Los Angeles Mission College,Sylmar,CA,91342,3,4,-118.4195,34.314668
Los Medanos College,Pittsburg,CA,94565,3,3,-121.860967,38.006474
Los Rios Community College District Office,Sacramento,CA,95825-3981,-2,-2,-121.417145,38.579859
Loyola Marymount University,Los Angeles,CA,90045-2659,3,4,-118.415744,33.97085
Lu Ross Academy,Ventura,CA,93001-2729,-2,1,-119.293952,34.278034
Lyle's College of Beauty,Bakersfield,CA,93301,-2,1,-119.02387,35.386539
Lyle's College of  Beauty,Fresno,CA,93710,-2,1,-119.774167,36.836265
Lytles Redwood Empire Beauty College,Santa Rosa,CA,95403,-2,1,-122.75777,38.508385
MTI College,Sacramento,CA,95841-9817,2,2,-121.342568,38.661377
College of Marin,Kentfield,CA,94904-2590,3,2,-122.548758,37.951918
Mendocino College,Ukiah,CA,95482,3,2,-123.228809,39.188989
Menlo College,Atherton,CA,94027-4301,2,1,-122.190797,37.453475
Merced College,Merced,CA,95348-2806,3,4,-120.476464,37.3353
Merritt College,Oakland,CA,94619-3196,3,3,-122.167335,37.789088
Northeastern University Oakland,Oakland,CA,94613,-2,1,-122.182294,37.781425
MiraCosta College,Oceanside,CA,92056-3899,3,4,-117.302606,33.190483
Mission College,Santa Clara,CA,95054-1897,3,3,-121.980783,37.391935
Modern Beauty Academy,Oxnard,CA,93030,-2,1,-119.181423,34.195384
Modesto Junior College,Modesto,CA,95350-5800,4,4,-121.009792,37.651056
Moler Barber College,Oakland,CA,94607,-2,1,-122.294723,37.805501
Middlebury Institute of International Studies at Monterey,Monterey,CA,93940,2,1,-121.897325,36.599736
Monterey Peninsula College,Monterey,CA,93940-4799,3,3,-121.884931,36.590558
Moorpark College,Moorpark,CA,93021-1695,4,4,-118.834528,34.301146
Mt San Antonio College,Walnut,CA,91789-1399,4,5,-117.846629,34.047764
Mount Saint Mary's University,Los Angeles,CA,90049-1599,2,2,-118.482879,34.085315
Mt San Jacinto Community College District,San Jacinto,CA,92583-2399,4,4,-116.971169,33.806748
Musicians Institute,Hollywood,CA,90028,2,1,-118.337582,34.101265
Napa Valley College,Napa,CA,94558-6236,3,2,-122.274381,38.274081
National Holistic Institute,Emeryville,CA,94608-2008,-2,2,-122.287672,37.841898
National University,San Diego,CA,92123,4,5,-117.127296,32.829299
Naval Postgraduate School,Monterey,CA,93943,2,2,-121.874248,36.597159
Newschool of Architecture and Design,San Diego,CA,92101,1,1,-117.153305,32.71331
North Adrian's College of Beauty Inc,Modesto,CA,95350-2381,-2,1,-120.992753,37.677778
North Orange County Community College District,Anaheim,CA,92801-1819,-2,-2,-117.945394,33.850118
North-West College-Pomona,Pomona,CA,91768,-2,1,-117.751227,34.062043
North-West College-West Covina,West Covina,CA,91790,2,1,-117.949583,34.072071
North-West College-Van Nuys,Van Nuys,CA,91411,-2,1,-118.450184,34.189497
San Francisco Bay University,Fremont,CA,94539,1,1,-121.927899,37.485056
Notre Dame de Namur University,Belmont,CA,94002-1908,1,1,-122.284794,37.517111
Occidental College,Los Angeles,CA,90041-3392,2,2,-118.210908,34.127124
Ohlone College,Fremont,CA,94539-0390,3,3,-121.911795,37.529931
Orange Coast College,Costa Mesa,CA,92626,4,4,-117.909086,33.66927
Otis College of Art and Design,Los Angeles,CA,90045-3505,2,2,-118.416615,33.956607
Oxnard College,Oxnard,CA,93033-6699,3,3,-119.157604,34.166104
Hope International University,Fullerton,CA,92831-3199,2,2,-117.88573,33.87616
Concorde Career College-San Diego,San Diego,CA,92113-1964,2,1,-117.102845,32.702814
Palo Alto University,Palo Alto,CA,94304-1337,2,2,-122.187437,37.382216
Pacific Oaks College,Pasadena,CA,91103,2,2,-118.151323,34.153382
Pacific School of Religion,Berkeley,CA,94709,1,1,-122.263155,37.87669
Pacific States University,Los Angeles,CA,90010-2263,1,1,-118.298408,34.061315
Pacific Union College,Angwin,CA,94508-9707,2,1,-122.440308,38.570585
University of the Pacific,Stockton,CA,95211-0197,3,3,-121.312301,37.981424
Palo Verde College,Blythe,CA,92225,3,2,-114.651698,33.661538
Palomar College,San Marcos,CA,92069-1487,4,4,-117.183978,33.149483
Pasadena City College,Pasadena,CA,91106-2003,4,5,-118.118196,34.144552
Pepperdine University,Malibu,CA,90263,3,3,-118.707077,34.037786
Peralta Community College System Office,Oakland,CA,94606,-2,-2,-122.260837,37.792667
Pitzer College,Claremont,CA,91711-6101,2,2,-117.706675,34.104107
Point Loma Nazarene University,San Diego,CA,92106-2899,3,2,-117.250265,32.718391
Pomona College,Claremont,CA,91711-4434,2,2,-117.714556,34.099027
Porterville College,Porterville,CA,93257,3,2,-119.014368,36.049256
Professional Institute of Beauty,El Monte,CA,91731,-2,1,-118.039028,34.075561
Santa Ana College,Santa Ana,CA,92706-3398,4,5,-117.887558,33.759309
RAND School of Public Policy,Santa Monica,CA,90401-3208,1,1,-118.490655,34.00973
Shasta School of Cosmetology,Redding,CA,96003,-2,1,-122.387248,40.597114
University of Redlands,Redlands,CA,92373-0999,3,2,-117.163218,34.064218
College of the Redwoods,Eureka,CA,95501-9300,3,2,-124.195293,40.698427
Salon Success Academy-Upland,Upland,CA,91786,-2,1,-117.631783,34.108247
Salon Success Academy-Corona,Corona,CA,92881,-2,1,-117.535638,33.847649
Rio Hondo College,Whittier,CA,90601-1616,4,4,-118.033506,34.019821
Riverside City College,Riverside,CA,92506,4,5,-117.384323,33.970918
Dongguk University Los Angeles,Los Angeles,CA,90020-1704,1,1,-118.289523,34.06597
Sacramento City College,Sacramento,CA,95822-1386,4,4,-121.491139,38.541096
Saddleback College,Mission Viejo,CA,92692-3635,4,5,-117.665584,33.553346
Samuel Merritt University,Oakland,CA,94609,2,2,-122.266331,37.82029
San Diego Community College District-District Office,San Diego,CA,92108,-2,-2,-117.120504,32.776275
San Diego City College,San Diego,CA,92101-4787,4,4,-117.152733,32.717403
San Diego Mesa College,San Diego,CA,92111-4998,4,4,-117.169165,32.803825
San Diego Miramar College,San Diego,CA,92126-2999,4,4,-117.120261,32.909757
San Diego State University,San Diego,CA,92182-0001,4,5,-117.071228,32.77525
University of San Diego,San Diego,CA,92110-2492,3,3,-117.192073,32.770816
San Francisco Conservatory of Music,San Francisco,CA,94102-6011,1,1,-122.420292,37.775543
San Francisco State University,San Francisco,CA,94132,4,5,-122.476799,37.721224
University of San Francisco,San Francisco,CA,94117-1080,3,3,-122.450477,37.776618
San Joaquin College of Law,Clovis,CA,93612-1312,1,1,-119.697657,36.82448
San Joaquin Delta College,Stockton,CA,95207,4,5,-121.317597,37.995562
San Joaquin Valley College-Visalia,Visalia,CA,93291-9283,2,2,-119.384981,36.328049
San Joaquin Valley College-Bakersfield,Bakersfield,CA,93309-2659,2,1,-119.062071,35.352848
William Jessup University,Rocklin,CA,95765-3707,2,2,-121.292312,38.819728
San Jose-Evergreen Community College District,San Jose,CA,95113-1599,-2,-2,-121.89118,37.334851
San Jose City College,San Jose,CA,95128-2798,3,3,-121.926185,37.315827
San Jose State University,San Jose,CA,95192-0186,5,5,-121.880621,37.336569
San Mateo County Community College District Office,San Mateo,CA,94402,-2,-2,-122.337627,37.531305
College of San Mateo,San Mateo,CA,94402-3784,3,3,-122.334801,37.535698
Santa Barbara City College,Santa Barbara,CA,93109-2394,3,4,-119.698045,34.406788
Santa Clara University,Santa Clara,CA,95053,3,3,-121.93784,37.348362
Santa Monica College,Santa Monica,CA,90405-1628,4,5,-118.469765,34.017022
Santa Rosa Junior College,Santa Rosa,CA,95401-4395,4,4,-122.718974,38.45709
Saybrook University,Pasadena,CA,91103,2,2,-118.152155,34.153103
Scripps College,Claremont,CA,91711,2,2,-117.711294,34.104147
College of the Sequoias,Visalia,CA,93277-2214,3,4,-119.315182,36.323877
Shasta Bible College and Graduate School,Redding,CA,96002,1,1,-122.314419,40.566034
Shasta College,Redding,CA,96003,3,3,-122.317982,40.625731
Sierra College,Rocklin,CA,95677-3397,4,4,-121.211688,38.790773
Sierra College of Beauty,Merced,CA,95340,-2,1,-120.495874,37.306975
Trinity Law School,Santa Ana,CA,92705,2,1,-117.852059,33.766071
Simpson University,Redding,CA,96003-8606,2,1,-122.332981,40.61334
College of the Siskiyous,Weed,CA,96094-2899,2,2,-122.38909,41.413005
Charles A Jones Career and Education Center,Sacramento,CA,95824-1529,-2,1,-121.440796,38.516233
Skyline College,San Bruno,CA,94066-1698,3,3,-122.467335,37.63042
San Bernardino Valley College,San Bernardino,CA,92410-2798,3,4,-117.313248,34.086353
Saint Mary's College of California,Moraga,CA,94575,2,2,-122.109031,37.840731
Solano Community College,Fairfield,CA,94534-3197,3,3,-122.122368,38.235881
Sonoma State University,Rohnert Park,CA,94928-3609,3,3,-122.677066,38.340274
South Baylo University,Anaheim,CA,92801-1701,1,1,-117.958416,33.848291
South Coast College,Orange,CA,92868-2609,1,1,-117.874031,33.78818
Vanguard University of Southern California,Costa Mesa,CA,92626,2,2,-117.900911,33.662686
Concorde Career College-Garden Grove,Garden Grove,CA,92840-9201,2,1,-117.938395,33.774741
Southwestern College,Chula Vista,CA,91910-7299,4,5,-116.996803,32.640281
Starr King School for the Ministry,Oakland,CA,94612,1,1,-122.270721,37.803526
State Center Community College District,Fresno,CA,93721,-2,-2,-119.792324,36.735642
Marshall B Ketchum University,Fullerton,CA,92831-1699,2,1,-117.886229,33.889348
Southern California Institute of Architecture,Los Angeles,CA,90013-1822,2,1,-118.232799,34.044215
University of Southern California,Los Angeles,CA,90089,5,5,-118.284169,34.021281
Southwestern Law School,Los Angeles,CA,90010-1106,2,2,-118.288375,34.061558
Taft College,Taft,CA,93268,3,2,-119.459751,35.149343
Claremont School of Theology,Los Angeles,CA,90024,1,1,-118.432495,34.064918
Thomas Aquinas College,Santa Paula,CA,93060,1,1,-119.087141,34.429009
Epic Bible College & Graduate School,Sacramento,CA,95841,1,1,-121.362642,38.645152
University of California-System Administration Central Office,Oakland,CA,94607-5200,-2,-2,-122.27134,37.802222
UEI College-Huntington Park,Huntington Park,CA,90255-2933,-2,2,-118.226206,33.986057
Concorde Career College-San Bernardino,San Bernardino,CA,92408-3403,2,1,-117.283995,34.066823
Concorde Career College-North Hollywood,North Hollywood,CA,91606-3134,2,1,-118.403627,34.186407
Ventura County Community College System Office,Camarillo,CA,93010,-2,-2,-119.057951,34.219073
Ventura College,Ventura,CA,93003-3872,3,4,-119.230604,34.277393
The Colleges of Law at Ventura,Ventura,CA,93003,1,1,-119.232988,34.25747
Bridges Beauty College,Victorville,CA,92395-3821,-2,1,-117.303933,34.528602
Victor Valley College,Victorville,CA,92395-5850,3,3,-117.261456,34.472231
Berkeley City College,Berkeley,CA,94704,3,3,-122.269877,37.869769
West Valley Mission Community College District Office,Saratoga,CA,95070-5698,-2,-2,-122.008324,37.26398
Walden University,Minneapolis,MN,55401,5,5,-93.265738,44.98125
Waynes College of Beauty,Salinas,CA,93906-2830,-2,1,-121.652672,36.700635
Coalinga College,Coalinga,CA,93210,3,2,-120.356747,36.147891
West Los Angeles College,Culver City,CA,90230-3519,3,3,-118.386664,34.004512
West Valley College,Saratoga,CA,95070,3,3,-122.008324,37.26398
Carrington College-Sacramento,Sacramento,CA,95826,2,2,-121.371383,38.556104
Westminster Theological Seminary in California,Escondido,CA,92027,1,1,-117.046371,33.121447
Westmont College,Santa Barbara,CA,93108-1089,2,2,-119.662517,34.450151
Whittier College,Whittier,CA,90601,2,1,-118.032299,33.978773
Woodbury University,Burbank,CA,91504-1052,2,1,-118.341147,34.208011
The Wright Institute,Berkeley,CA,94704-1796,2,1,-122.253168,37.868221
Thomas Jefferson School of Law,San Diego,CA,92101,1,1,-117.157862,32.717595
Yeshiva Ohr Elchonon Chabad West Coast Talmudical Seminary,Los Angeles,CA,90046-7660,1,1,-118.346613,34.085465
Yosemite Community College District Office,Modesto,CA,95358,-2,-2,-121.038612,37.660935
Yuba College,Marysville,CA,95901,3,3,-121.53964,39.126536
Adams State University,Alamosa,CO,81101,2,2,-105.879642,37.473636
Aims Community College,Greeley,CO,80634,3,3,-104.763415,40.409559
Arapahoe Community College,Littleton,CO,80160-9002,3,4,-105.018631,39.607505
Bel-Rea Institute of Animal Technology,Denver,CO,80247,1,1,-104.876207,39.686194
University of Colorado Denver/Anschutz Medical Campus,Denver,CO,80217-3364,4,5,-104.837722,39.745149
University of Colorado Colorado Springs,Colorado Springs,CO,80918,3,4,-104.800296,38.892735
Spartan College of Aeronautics and Technology,Broomfield,CO,80021-3465,1,1,-105.119096,39.914822
University of Colorado Boulder,Boulder,CO,80309-0017,5,5,-105.270823,40.008781
Colorado Christian University,Lakewood,CO,80226,3,3,-105.09456,39.71388
Colorado College,Colorado Springs,CO,80903,2,2,-104.822697,38.84886
Concorde Career College-Aurora,Aurora,CO,80010-4314,2,1,-104.867089,39.718699
Colorado Mountain College,Glenwood Springs,CO,81601-0233,3,3,-107.324441,39.54636
Colorado Northwestern Community College,Rangely,CO,81648-3598,2,2,-108.790048,40.081112
Colorado School of Mines,Golden,CO,80401,3,3,-105.223364,39.751443
Colorado School of Trades,Lakewood,CO,80215-2996,1,1,-105.104174,39.74181
Colorado State University-Fort Collins,Fort Collins,CO,80523-0100,4,5,-105.080732,40.574805
Colorado Technical University-Colorado Springs,Colorado Springs,CO,80907-3812,5,5,-104.85716,38.895069
Community College of Aurora,Aurora,CO,80011-9036,3,3,-104.802673,39.71788
Technical College of the Rockies,Delta,CO,81416,-2,1,-108.031072,38.702524
Community College of Denver,Denver,CO,80204-2026,3,3,-105.001044,39.741413
Lincoln College of Technology-Denver,Denver,CO,80239,2,2,-104.856171,39.77651
Denver Seminary,Littleton,CO,80120,2,1,-105.022363,39.600595
University of Denver,Denver,CO,80208,3,4,-104.963259,39.678005
Emily Griffith Technical College,Denver,CO,80203,-2,3,-104.985751,39.74575
Fort Lewis College,Durango,CO,81301-3999,2,2,-107.867422,37.275939
Front Range Community College,Westminster,CO,80031,4,5,-105.038068,39.901452
Iliff School of Theology,Denver,CO,80210-4798,1,1,-104.960657,39.675927
International Salon and Spa Academy,Colorado Springs,CO,80918-3684,-2,1,-104.786252,38.913621
Lamar Community College,Lamar,CO,81052-3999,2,1,-102.616144,38.068886
Colorado Mesa University,Grand Junction,CO,81501-3122,3,3,-108.553275,39.080643
Metropolitan State University of Denver,Denver,CO,80217-3362,4,4,-105.00504,39.744202
Morgan Community College,Fort  Morgan,CO,80701,2,2,-103.771822,40.258792
Naropa University,Boulder,CO,80302-6697,2,2,-105.266987,40.014235
Nazarene Bible College,Colorado Springs,CO,80909,2,1,-104.758064,38.862354
Northeastern Junior College,Sterling,CO,80751-2944,2,2,-103.197329,40.637215
University of Northern Colorado,Greeley,CO,80639,3,3,-104.692777,40.410855
Otero College,La Junta,CO,81050,2,1,-103.544874,37.969984
Pikes Peak State College,Colorado Springs,CO,80906-5498,3,4,-104.787261,38.764287
Pueblo Community College,Pueblo,CO,81004-1499,3,3,-104.636258,38.262124
Red Rocks Community College,Lakewood,CO,80228-1255,3,3,-105.150094,39.720277
Regis University,Denver,CO,80221-1099,3,2,-105.030756,39.788175
Rocky Mountain College of Art and Design,Lakewood,CO,80214,2,2,-105.069911,39.74332
Montessori Education Center of the Rockies,Denver,CO,80205,-2,1,-104.943415,39.762942
Colorado State University Pueblo,Pueblo,CO,81001-4901,3,3,-104.579033,38.30859
Pickens Technical College,Aurora,CO,80011-9307,-2,2,-104.789683,39.723705
Intellitec College-Colorado Springs,Colorado Springs,CO,80909-6096,2,1,-104.78721,38.832183
Intellitec College-Grand Junction,Grand Junction,CO,81506,2,2,-108.53062,39.116346
Trinidad State College,Trinidad,CO,81082,2,2,-104.513451,37.172059
University of Colorado System Office,Denver,CO,80203-1187,-2,-2,-104.983277,39.74521
United States Air Force Academy,USAF Academy,CO,80840-5002,3,2,-104.891358,39.010957
Empire Beauty School-Thornton,Thornton,CO,80233,-2,1,-104.94357,39.915253
Western Colorado University,Gunnison,CO,81231,3,2,-106.919132,38.549936
Albertus Magnus College,New Haven,CT,06511-1189,2,2,-72.923848,41.332519
Bais Binyomin Academy,Monsey,NY,10952,-2,1,-74.078802,41.123013
University of Bridgeport,Bridgeport,CT,06604-5620,3,2,-73.190166,41.164741
Central Connecticut State University,New Britain,CT,6050,3,3,-72.765991,41.692502
Charter Oak State College,New Britain,CT,6051,2,2,-72.781239,41.666848
Cortiva Institute,Cromwell,CT,6416,-2,1,-72.678562,41.604041
Connecticut College,New London,CT,06320-4196,2,2,-72.107321,41.379833
Porter & Chester Institute of Hamden,Hamden,CT,6514,-2,1,-72.931908,41.346568
University of Connecticut,Storrs,CT,6269,4,5,-72.249948,41.809098
Goodwin University,East Hartford,CT,6118,3,2,-72.64032,41.742977
Lincoln Technical Institute-East Windsor,East Windsor,CT,6088,-2,2,-72.596915,41.924248
Eastern Connecticut State University,Willimantic,CT,6226,3,2,-72.218753,41.721673
Fairfield University,Fairfield,CT,06824-5195,3,3,-73.255903,41.157673
Paul Mitchell the School-North Haven,North Haven,CT,6473,-2,1,-72.85745,41.394495
Connecticut State Community College,New Britain,CT,6051,4,5,-72.672734,41.768397
Rensselaer at Hartford,Hartford,CT,6120,1,-2,-72.673916,41.773462
American Institute-West Hartford,West Hartford,CT,06110-1922,-2,1,-72.725762,41.727016
Hartford International University for Religion and Peace,Hartford,CT,06105-2260,1,1,-72.707766,41.769861
University of Hartford,West Hartford,CT,06117-1599,3,3,-72.715213,41.798591
Holy Apostles College and Seminary,Cromwell,CT,06416-2005,2,1,-72.647853,41.60682
Mitchell College,New London,CT,6320,2,1,-72.09523,41.328013
Lincoln Technical Institute-New Britain,New Britain,CT,6051,-2,1,-72.754498,41.659236
New England Tractor Trailer Training School of Connecticut,Somers,CT,6071,-2,1,-72.450218,41.979699
University of New Haven,West Haven,CT,06516-1916,3,3,-72.961472,41.291314
Paier College,Bridgeport,CT,6606,1,-1,-73.194727,41.163451
Porter & Chester Institute,Bridgeport,CT,6610,-2,2,-73.187731,41.200813
Post University,Waterbury,CT,6723,4,4,-73.081497,41.535549
Quinnipiac University,Hamden,CT,6518,3,3,-72.894117,41.418915
Sacred Heart University,Fairfield,CT,06825-1000,3,4,-73.243332,41.220893
University of Saint Joseph,West Hartford,CT,6117,2,2,-72.72965,41.781041
Southern Connecticut State University,New Haven,CT,06515-1355,3,3,-72.947897,41.333225
Trinity College,Hartford,CT,06106-3100,2,2,-72.690882,41.747451
United States Coast Guard Academy,New London,CT,6320,2,2,-72.101583,41.375823
Wesleyan University,Middletown,CT,6459,2,2,-72.657146,41.554665
Western Connecticut State University,Danbury,CT,06810-6826,3,2,-73.444264,41.400365
Yale University,New Haven,CT,6520,3,4,-72.926688,41.311158
Margaret H Rollins School of Nursing at Beebe Medical Center,Lewes,DE,19958,-2,1,-75.142864,38.771565
Dawn Career Institute LLC,Newark,DE,19702,-2,1,-75.677768,39.668605
Delaware Technical Community College-Central Office,Dover,DE,19901,-2,-2,-75.5582,39.20109
Delaware Technical Community College-Terry,Dover,DE,19901,3,4,-75.56012,39.198371
Delaware State University,Dover,DE,19901,3,3,-75.54053,39.187173
University of Delaware,Newark,DE,19716,4,5,-75.752822,39.679577
Goldey-Beacom College,Wilmington,DE,19808,2,2,-75.689624,39.741501
Schilling-Douglas School of Hair Design,Newark,DE,19711,-2,1,-75.74178,39.711442
Wesley College,Dover,DE,19901-3875,-2,-2,-75.527737,39.163278
Wilmington University,New Castle,DE,19720,3,4,-75.586998,39.682299
American University,Washington,DC,20016-8001,3,4,-77.088875,38.936005
The Catholic University of America,Washington,DC,20064,3,3,-76.997909,38.933651
University of the District of Columbia,Washington,DC,20008,3,2,-77.066247,38.943819
Pontifical Faculty of the Immaculate Conception at the Dominican House of Studies,Washington,DC,20017-1585,1,1,-76.998724,38.931652
Gallaudet University,Washington,DC,20002-3695,2,2,-76.993675,38.907371
George Washington University,Washington,DC,20052,4,5,-77.048363,38.89923
Georgetown University,Washington,DC,20057-0001,4,5,-77.073463,38.908809
Howard University,Washington,DC,20059,3,4,-77.018966,38.922392
Strayer University-District of Columbia,Washington,DC,20005,2,1,-77.034133,38.904881
National Conservatory of Dramatic Arts,Washington,DC,20007,-2,1,-77.065095,38.910024
Trinity Washington University,Washington,DC,20017-1094,2,2,-77.004261,38.927398
Wesley Theological Seminary,Washington,DC,20016-5690,2,1,-77.08996,38.939606
Atlantic Technical College,Coconut Creek,FL,33063-3902,-2,2,-80.192271,26.24278
Baptist University of Florida,Graceville,FL,32440,2,1,-85.503931,30.962708
Barry University,Miami,FL,33161-6695,3,3,-80.198925,25.878908
Bethune-Cookman University,Daytona Beach,FL,32114-3099,2,2,-81.032946,29.207195
Lynn University,Boca Raton,FL,33431-5598,2,2,-80.122806,26.385985
North Florida Technical College,Starke,FL,32091,-2,1,-82.117224,29.952308
Eastern Florida State College,Melbourne,FL,32935,3,4,-80.670781,28.170002
Broward College,Fort Lauderdale,FL,33301,5,5,-80.14183,26.119422
Albizu University-Miami,Miami,FL,33172-2209,2,1,-80.354942,25.795181
College of Central Florida,Ocala,FL,34474,3,3,-82.175692,29.166079
Johnson University Florida,Kissimmee,FL,34744,1,-2,-81.363053,28.302547
University of Central Florida,Orlando,FL,32816,5,5,-81.200889,28.602159
Charlotte Technical College,Port Charlotte,FL,33948-3399,-2,1,-82.147238,27.005558
Chipola College,Marianna,FL,32446-2053,2,2,-85.23139,30.789228
Lorenzo Walker Technical College,Naples,FL,34104-4405,-2,1,-81.763568,26.141141
Daytona State College,Daytona Beach,FL,32114,3,4,-81.049513,29.20278
South University-West Palm Beach,Royal Palm Beach,FL,33411,2,1,-80.200219,26.69215
Eckerd College,Saint Petersburg,FL,33711-4700,2,2,-82.687043,27.715798
Florida SouthWestern State College,Fort Myers,FL,33919,3,4,-81.887102,26.552403
Edward Waters University,Jacksonville,FL,32209,2,2,-81.684879,30.34479
Embry-Riddle Aeronautical University-Daytona Beach,Daytona Beach,FL,32114-3900,3,4,-81.048367,29.189903
Florida Agricultural and Mechanical University,Tallahassee,FL,32307,3,3,-84.290226,30.428504
Florida Atlantic University,Boca Raton,FL,33431-0991,4,5,-80.102978,26.372421
Florida State College at Jacksonville,Jacksonville,FL,32202,4,5,-81.659901,30.334918
Flagler College,Saint Augustine,FL,32084,2,2,-81.314887,29.892733
Florida College,Temple Terrace,FL,33617,2,1,-82.383289,28.034936
Concorde Career Institute-Jacksonville,Jacksonville,FL,32256-6905,2,1,-81.581748,30.23886
Concorde Career Institute-Miramar,Miramar,FL,33025,2,1,-80.291516,25.977088
Concorde Career Institute-Tampa,Tampa,FL,33607-4127,2,1,-82.514341,27.959148
AdventHealth University,Orlando,FL,32803,2,2,-81.367687,28.576142
Florida Institute of Technology,Melbourne,FL,32901-6975,3,3,-80.623123,28.065773
Florida International University,Miami,FL,33199,5,5,-80.373928,25.75732
The College of the Florida Keys,Key West,FL,33040,2,2,-81.74446,24.582748
Florida Memorial University,Miami Gardens,FL,33054-6199,2,2,-80.270753,25.918278
Florida Career College-Miami,Miami,FL,33174-2521,2,-1,-80.36778,25.756567
Florida School of Massage,Gainesville,FL,32608-5419,-2,1,-82.338273,29.593428
Florida Southern College,Lakeland,FL,33801-5698,2,2,-81.948203,28.032443
Florida State University,Tallahassee,FL,32306-1037,5,5,-84.295064,30.443147
University of Florida,Gainesville,FL,32611,5,5,-82.347911,29.64629
Fort Pierce Beauty Academy,Fort Pierce,FL,34982-6333,-2,1,-80.325377,27.411962
Full Sail University,Winter Park,FL,32792-7429,4,5,-81.301286,28.596546
George Stone Technical College,Pensacola,FL,32526-8922,-2,1,-87.290659,30.487547
George T Baker Aviation Technical College,Miami,FL,33142,-2,2,-80.263591,25.804092
Gulf Coast State College,Panama City,FL,32401,3,3,-85.727918,30.185542
Key College,Fort Lauderdale,FL,33306-1801,1,-2,-80.108183,26.166983
Hillsborough Community College,Tampa,FL,33606-3584,4,5,-82.456253,27.934888
Hobe Sound Bible College,Hobe Sound,FL,33455,1,1,-80.13184,27.066304
Hollywood Institute of Beauty Careers,Hollywood,FL,33023,-2,1,-80.209125,26.007139
Cortiva Institute,St. Petersburg,FL,33713,-2,1,-82.680031,27.793547
Indian River State College,Fort Pierce,FL,34981-5596,4,4,-80.358682,27.42416
International Academy,South Daytona,FL,32119,-2,1,-80.997811,29.162159
Jacksonville University,Jacksonville,FL,32211-3394,3,2,-81.60458,30.353227
Keiser University-Ft Lauderdale,Fort Lauderdale,FL,33309,4,5,-80.163959,26.185869
La Belle Beauty School,Hialeah,FL,33012,-2,1,-80.312711,25.86695
Florida Gateway College,Lake City,FL,32025-2007,3,2,-82.5679,30.175298
Lake Technical College,Eustis,FL,32726,-2,1,-81.690874,28.833446
Lake-Sumter State College,Leesburg,FL,34788-8751,3,3,-81.797193,28.828649
Fort Myers Technical College,Fort Myers,FL,33916-2204,-2,1,-81.836596,26.647517
Lively Technical College,Tallahassee,FL,32304-2895,-2,2,-84.339057,30.448534
Lindsey Hopkins Technical College,Miami,FL,33127,-2,1,-80.208154,25.794676
Loraines Academy & Spa,Saint Petersburg,FL,33710,-2,1,-82.713964,27.783077
Luther Rice College & Seminary,Lithonia,GA,30038-9869,2,1,-84.123179,33.698126
State College of Florida-Manatee-Sarasota,Bradenton,FL,34207,3,3,-82.590887,27.43804
Manatee Technical College,Bradenton,FL,34203,-2,2,-82.481088,27.447894
Traviss Technical College,Lakeland,FL,33803,-2,1,-81.892381,27.995822
Merryfield Academy,Oakland Park,FL,33334-4925,-2,1,-80.129991,26.19044
Trinity International University-Florida,Miami,FL,33186,1,-2,-80.417646,25.68307
Miami Lakes Educational Center and Technical College,Miami Lakes,FL,33014,-2,1,-80.294424,25.915514
Miami Dade College,Miami,FL,33132-2204,5,5,-80.190856,25.777717
University of Miami,Coral Gables,FL,33146,4,4,-80.278662,25.72126
Orange Technical College-South Campus,Orlando,FL,32809,-2,2,-81.415996,28.471695
Paul Mitchell the School-Jacksonville,Jacksonville,FL,32246,-2,1,-81.527515,30.259433
North Florida College,Madison,FL,32340,2,2,-83.420732,30.473841
University of North Florida,Jacksonville,FL,32224-7699,3,4,-81.509144,30.27194
Nova Southeastern University,Fort Lauderdale,FL,33328-2004,4,5,-80.249891,26.082288
Northwest Florida State College,Niceville,FL,32578-1295,3,2,-86.47456,30.540017
Orange Technical College,Orlando,FL,32801-1197,-2,1,-81.383783,28.550422
Palm Beach Atlantic University,West Palm Beach,FL,33401,3,2,-80.05247,26.7044
Palm Beach State College,Lake Worth,FL,33461-4796,4,5,-80.08653,26.61256
Pasco-Hernando State College,New Port Richey,FL,34654-5199,3,3,-82.646727,28.2751
Pensacola State College,Pensacola,FL,32504-8998,3,3,-87.200265,30.479267
Pinellas Technical College-Clearwater,Clearwater,FL,33760-2140,-2,2,-82.719064,27.911922
Polk State College,Winter Haven,FL,33881-4299,3,4,-81.711873,28.032411
Radford M Locklin Technical College,Milton,FL,32570-8188,-2,1,-87.09971,30.648077
Saint Vincent de Paul Regional Seminary,Boynton Beach,FL,33436-4899,1,1,-80.125185,26.516538
Ridge Technical College,Winter Haven,FL,33881-9518,-2,1,-81.654463,28.076632
Ringling College of Art and Design,Sarasota,FL,34234-5895,2,2,-82.547803,27.360931
Robert Morgan Educational Center and Technical College,Miami,FL,33177-2427,-2,2,-80.390054,25.599247
Rollins College,Winter Park,FL,32789-4499,2,2,-81.349239,28.592787
First Coast Technical College,Saint Augustine,FL,32084-1919,-2,1,-81.345829,29.924377
Saint Leo University,Saint Leo,FL,33574-6665,3,3,-82.257801,28.336776
St Petersburg College,St. Petersburg,FL,33701,4,5,-82.636587,27.773264
Pinellas Technical College-St. Petersburg,Saint Petersburg,FL,33711-2209,-2,2,-82.681534,27.761183
Santa Fe College,Gainesville,FL,32606-6210,3,4,-82.433143,29.681037
Suncoast Technical College,Sarasota,FL,34233-1798,-2,2,-82.500827,27.285486
Seminole State College of Florida,Sanford,FL,32773-6199,4,4,-81.308003,28.745482
Sheridan Technical College,Hollywood,FL,33021,-2,2,-80.198024,26.031736
St. John Vianney College Seminary,Miami,FL,33165-3244,1,1,-80.337411,25.742579
Saint Johns River State College,Palatka,FL,32177,3,3,-81.681387,29.647516
South Florida State College,Avon Park,FL,33825-9356,2,2,-81.508667,27.56974
University of South Florida,Tampa,FL,33620-9951,5,5,-82.413232,28.061458
St. Thomas University,Miami Gardens,FL,33054-6459,3,3,-80.253273,25.922071
Stetson University,DeLand,FL,32723,3,2,-81.300746,29.035475
Southeastern University,Lakeland,FL,33801-6034,3,4,-81.918382,28.029733
Bene's Career Academy,New Port Richey,FL,34652,-2,1,-82.728584,28.259612
Riveroak Technical College,Live Oak,FL,32064,-2,1,-82.992512,30.281999
Tallahassee State College,Tallahassee,FL,32304-2895,3,4,-84.339,30.443866
Talmudic College of Florida,Miami Beach,FL,33140-3854,1,1,-80.136293,25.811996
The University of Tampa,Tampa,FL,33606-1490,3,4,-82.46483,27.948455
Big Bend Technical College,Perry,FL,32348,-2,1,-83.565783,30.077954
Tom P. Haney Technical College,Panama City,FL,32405,-2,1,-85.646585,30.203363
Trinity Baptist College,Jacksonville,FL,32221,1,1,-81.79626,30.311171
Trinity College of Florida,Trinity,FL,34655-4401,1,1,-82.678318,28.194732
Valencia College,Orlando,FL,32811,5,5,-81.464275,28.520783
Warner University,Lake Wales,FL,33859-8797,2,1,-81.599972,27.825751
Florida Panhandle Technical College,Chipley,FL,32428-1618,-2,1,-85.553345,30.77449
Webber International University,Babson Park,FL,33827-0096,2,1,-81.532315,27.838778
Rasmussen University-Florida,Ocala,FL,34471,3,2,-82.15319,29.175319
University of West Florida,Pensacola,FL,32514-5750,3,4,-87.218511,30.549076
Orange Technical College-West Campus,Ocoee,FL,34761,-2,2,-81.555585,28.597903
William T McFatter Technical College,Davie,FL,33317,-2,1,-80.232201,26.085022
Orange Technical College-East Campus,Winter Park,FL,32789-3049,-2,2,-81.36174,28.604386
Withlacoochee Technical College,Inverness,FL,34450-4301,-2,1,-82.345563,28.834861
Abraham Baldwin Agricultural College,Tifton,GA,31793-2601,3,2,-83.528281,31.481889
Agnes Scott College,Decatur,GA,30030-3770,2,2,-84.295459,33.769268
Interactive College of Technology-Chamblee,Chamblee,GA,30341,2,1,-84.304381,33.886966
Interactive College of Technology-Morrow,Morrow,GA,30260,1,1,-84.331192,33.57125
Albany Technical College,Albany,GA,31701,2,2,-84.174284,31.55434
Albany State University,Albany,GA,31705,3,3,-84.141825,31.56928
Andrew College,Cuthbert,GA,39840-5550,1,1,-84.795021,31.772321
Georgia Career Institute,Conyers,GA,30094,-2,1,-84.018321,33.64336
Atlanta Technical College,Atlanta,GA,30310-4446,3,2,-84.404995,33.712009
Point University,West Point,GA,31833,2,2,-85.184931,32.87912
Atlanta Metropolitan State College,Atlanta,GA,30310-4448,2,2,-84.404659,33.70893
Atlanta's John Marshall Law School,Atlanta,GA,30303,1,1,-84.385603,33.76128
Atlanta School of Massage,Atlanta,GA,30338,-2,1,-84.311332,33.922131
Clark Atlanta University,Atlanta,GA,30314,3,2,-84.412584,33.747628
Augusta Technical College,Augusta,GA,30906,3,2,-82.048439,33.418992
Berry College,Mount Berry,GA,30149,2,2,-85.189202,34.290414
Beulah Heights University,Atlanta,GA,30316,2,1,-84.35768,33.736993
Brenau University,Gainesville,GA,30501-3668,2,2,-83.821513,34.303117
Brewton-Parker College,Mount Vernon,GA,30445,2,2,-82.586136,32.185718
College of Coastal Georgia,Brunswick,GA,31520-3644,3,2,-81.486169,31.181983
West Georgia Technical College,Waco,GA,30182,3,3,-85.183666,33.691657
Clayton  State University,Morrow,GA,30260-0285,3,3,-84.328174,33.594079
Columbia Theological Seminary,Decatur,GA,30030-4118,1,1,-84.281695,33.764292
Columbus Technical College,Columbus,GA,31904-6572,3,2,-84.978551,32.508076
Columbus State University,Columbus,GA,31907-5645,3,3,-84.94106,32.50096
Georgia Northwestern Technical College,Rome,GA,30161,3,3,-85.171361,34.224673
Covenant College,Lookout Mountain,GA,30750-4164,2,2,-85.375066,34.965161
Dalton State College,Dalton,GA,30720-3797,3,3,-85.002775,34.774221
Pro Way Hair School,Stone Mountain,GA,30083-3254,-2,1,-84.205183,33.801802
South University-Savannah,Savannah,GA,31406,2,1,-81.105531,31.999481
East Georgia State College,Swainsboro,GA,30401,2,2,-82.309021,32.594944
Emmanuel University,Franklin Springs,GA,30639,2,1,-83.14822,34.283641
Emory University,Atlanta,GA,30322,3,4,-84.325512,33.790183
Georgia Highlands College,Rome,GA,30161-3897,3,3,-85.207356,34.169791
Fort Valley State University,Fort Valley,GA,31030-4313,2,2,-83.89537,32.537595
Grady Health System Professional Schools,Atlanta,GA,30303-3050,-2,1,-84.381561,33.751852
Georgia Institute of Technology-Main Campus,Atlanta,GA,30332-0530,5,5,-84.394832,33.77242
Georgia Southwestern State University,Americus,GA,31709-4693,2,2,-84.217738,32.054662
Georgia College & State University,Milledgeville,GA,31061,3,3,-83.231962,33.082787
Georgia Southern University,Statesboro,GA,30460-8126,4,5,-81.784045,32.426153
Georgia State University,Atlanta,GA,30303-3083,5,5,-84.38667,33.7527
University of Georgia,Athens,GA,30602,5,5,-83.374039,33.956262
Gordon State College,Barnesville,GA,30204,2,2,-84.154508,33.04571
Southern Crescent Technical College,Griffin,GA,30223-2042,3,3,-84.291662,33.255438
Gupton Jones College of Funeral Service,Decatur,GA,30035-4022,2,1,-84.179775,33.710709
Gwinnett College-Lilburn,Lilburn,GA,30047-3447,1,1,-84.121874,33.901271
Gwinnett Technical College,Lawrenceville,GA,30043-5702,3,4,-84.066224,33.962763
Interdenominational Theological Center,Atlanta,GA,30314-4143,1,1,-84.409207,33.752338
LaGrange College,Lagrange,GA,30240-2999,2,1,-85.043113,33.038564
Lanier Technical College,Gainesville,GA,30507,3,3,-83.778107,34.330323
Life University,Marietta,GA,30060,2,2,-84.514729,33.932781
Chattahoochee Technical College,Marietta,GA,30060,3,4,-84.553722,33.929092
Herzing University-Atlanta,Atlanta,GA,30303,2,1,-84.387251,33.754218
Mercer University,Macon,GA,31207,3,3,-83.649392,32.829134
Morehouse College,Atlanta,GA,30314,2,2,-84.414917,33.745982
Morehouse School of Medicine,Atlanta,GA,30310,2,1,-84.41186,33.742888
Morris Brown College,Atlanta,GA,30314-4140,1,1,-84.407668,33.753707
North Georgia Technical College,Clarkesville,GA,30523,2,2,-83.530118,34.639721
Oglethorpe University,Atlanta,GA,30319-2797,2,2,-84.333687,33.875441
Paine College,Augusta,GA,30901-3182,1,1,-81.993225,33.469545
Piedmont University,Demorest,GA,30535-0010,2,2,-83.542126,34.566042
Miami Ad School-Atlanta,Atlanta,GA,30309,-2,1,-84.384562,33.790763
Reinhardt University,Waleska,GA,30183-2981,2,2,-84.554264,34.319756
Savannah Technical College,Savannah,GA,31405-5594,3,2,-81.114753,32.023211
Savannah College of Art and Design,Savannah,GA,31402-3146,3,4,-81.09395,32.072964
Savannah State University,Savannah,GA,31404-5310,2,2,-81.063377,32.024781
Shorter University,Rome,GA,30165,2,2,-85.196529,34.257543
South Georgia Technical College,Americus,GA,31709,2,2,-84.188321,32.116663
Spelman College,Atlanta,GA,30314-4399,2,2,-84.411527,33.745279
Thomas University,Thomasville,GA,31792,2,2,-83.963587,30.815576
Toccoa Falls College,Toccoa Falls,GA,30598,2,2,-83.357617,34.593414
Truett McConnell University,Cleveland,GA,30528,2,2,-83.748911,34.596306
Wiregrass Georgia Technical College,Valdosta,GA,31602-0929,3,2,-83.35381,30.889221
Valdosta State University,Valdosta,GA,31698,3,4,-83.289282,30.847402
Wesleyan College,Macon,GA,31210-4462,2,1,-83.715417,32.876037
University of West Georgia,Carrollton,GA,30118-0001,3,4,-85.097762,33.573621
Young Harris College,Young Harris,GA,30582,2,2,-83.84587,34.933523
Chaminade University of Honolulu,Honolulu,HI,96816-1578,2,2,-157.807851,21.28995
University of Hawaii at Hilo,Hilo,HI,96720-4091,2,2,-155.080847,19.701189
University of Hawaii at Manoa,Honolulu,HI,96822-2217,4,5,-157.818979,21.298598
Hawaii Institute of Hair Design,Honolulu,HI,96817-5195,-2,1,-157.861609,21.31146
Hawaii Pacific University,Honolulu,HI,96813,3,2,-157.859645,21.310306
Honolulu Community College,Honolulu,HI,96817-4505,3,2,-157.87,21.321785
Kapiolani Community College,Honolulu,HI,96816-4421,3,3,-157.800213,21.27148
Kauai Community College,Lihue,HI,96766-9500,2,2,-159.395883,21.968887
Leeward Community College,Pearl City,HI,96782-3366,3,3,-157.983771,21.39267
University of Hawaii Maui College,Kahului,HI,96732-1617,2,2,-156.477252,20.88956
University of Hawaii System Office,Honolulu,HI,96822-2399,-2,-2,-157.819899,21.297294
University of Hawaii-West Oahu,Kapolei,HI,96707-4507,3,2,-158.056403,21.35531
Windward Community College,Kaneohe,HI,96744-3528,2,2,-157.813307,21.407051
Carrington College-Boise,Boise,ID,83706,2,1,-116.243919,43.615923
Boise Bible College,Boise,ID,83714-1220,1,1,-116.291321,43.658651
Boise State University,Boise,ID,83725,4,5,-116.203301,43.604284
College of Eastern Idaho,Idaho Falls,ID,83404-5788,2,2,-111.985519,43.486041
Idaho State University,Pocatello,ID,83209,3,4,-112.432312,42.863832
University of Idaho,Moscow,ID,83844-2282,3,4,-117.014167,46.727406
The College of Idaho,Caldwell,ID,83605-4432,2,2,-116.677992,43.652284
Lewis-Clark State College,Lewiston,ID,83501-2698,3,2,-117.024875,46.412199
Aveda Institute-Twin Falls,Twin Falls,ID,83301,-2,1,-114.461545,42.593567
North Idaho College,Coeur d'Alene,ID,83814-2199,3,2,-116.798905,47.67569
Northwest Nazarene University,Nampa,ID,83686-5897,3,2,-116.565783,43.562411
Nathan Layne Institute of Cosmetology,Chubbuck,ID,83202,-2,1,-112.464554,42.919964
Brigham Young University-Idaho,Rexburg,ID,83460-1690,5,5,-111.782431,43.818408
College of Southern Idaho,Twin Falls,ID,83301,3,4,-114.473901,42.579837
Adler University,Chicago,IL,60602,2,2,-87.629156,41.882414
American Academy of Art College,Chicago,IL,60604-4302,1,-2,-87.624788,41.87742
American Islamic College,Chicago,IL,60613,1,1,-87.646898,41.954969
School of the Art Institute of Chicago,Chicago,IL,60603,2,2,-87.625758,41.88105
Augustana College,Rock Island,IL,61201-2296,2,2,-90.55057,41.502365
Aurora University,Aurora,IL,60506-4892,3,3,-88.349023,41.753631
Southwestern Illinois College,Belleville,IL,62221-5899,3,3,-89.924466,38.516406
Bethany Theological Seminary,Richmond,IN,47374-4019,1,1,-84.910689,39.826244
Black Hawk College,Moline,IL,61265-5899,3,2,-90.447799,41.477283
Blackburn College,Carlinville,IL,62626,1,1,-89.870241,39.287896
Blessing Rieman College of Nursing and Health Sciences,Quincy,IL,62305-7005,1,1,-91.357497,39.949641
Bradley University,Peoria,IL,61625-0001,3,2,-89.616786,40.696896
Paul Mitchell the School-Tinley Park,Tinley Park,IL,60477-6273,-2,1,-87.801816,41.556477
Cameo Beauty Academy,Oak Lawn,IL,60453,-2,1,-87.740894,41.716051
Cannella School of Hair Design-Villa Park,Villa Park,IL,60181,-2,1,-87.994628,41.90417
Cannella School of Hair Design-Chicago,Chicago,IL,60617-4303,-2,-2,-87.551622,41.731381
Cannella School of Hair Design-Chicago,Chicago,IL,60632-2549,-2,1,-87.701198,41.815763
Capri Beauty College,Oak Forest,IL,60452,-2,1,-87.771567,41.603863
Carl Sandburg College,Galesburg,IL,61401,2,2,-90.408203,40.98128
Catholic Theological Union at Chicago,Chicago,IL,60615-5698,1,1,-87.585989,41.797895
Midwestern University-Downers Grove,Downers Grove,IL,60515-5514,2,2,-87.998342,41.828115
The Chicago School at Chicago,Chicago,IL,60654,2,2,-87.63379,41.888293
Chicago State University,Chicago,IL,60628-1598,2,2,-87.609384,41.718446
Chicago Theological Seminary,Chicago,IL,60637,1,1,-87.591178,41.785701
University of Chicago,Chicago,IL,60637,4,4,-87.599539,41.787994
City Colleges of Chicago-Kennedy-King College,Chicago,IL,60621-2709,2,2,-87.643425,41.780253
City Colleges of Chicago-Malcolm X College,Chicago,IL,60612-3197,3,3,-87.675321,41.878092
City Colleges of Chicago-Olive-Harvey College,Chicago,IL,60628-1696,2,2,-87.589249,41.709997
City Colleges of Chicago-Harry S Truman College,Chicago,IL,60640-6063,3,3,-87.659107,41.964502
City Colleges of Chicago-Richard J Daley College,Chicago,IL,60652-1299,3,3,-87.723981,41.755955
City Colleges of Chicago-Harold Washington College,Chicago,IL,60601-2449,3,3,-87.626596,41.886067
City Colleges of Chicago-Wilbur Wright College,Chicago,IL,60634-1500,3,3,-87.787868,41.958774
Columbia College Chicago,Chicago,IL,60605-1996,3,3,-87.624667,41.874261
Concordia University-Chicago,River Forest,IL,60305-1499,3,2,-87.809482,41.898696
City Colleges of Chicago-District Office,Chicago,IL,60601,-2,-2,-87.62671,41.885452
Danville Area Community College,Danville,IL,61832-5118,2,2,-87.587884,40.127539
Tricoci University of Beauty Culture,Urbana,IL,61801,-2,1,-88.205972,40.117724
DePaul University,Chicago,IL,60604,4,5,-87.62724,41.877618
DeVry University-Administrative Office,Lisle,IL,60532,-2,-2,-88.116625,41.807204
Cosmetology & Spa Academy,Crystal Lake,IL,60014,-2,1,-88.294087,42.24918
College of DuPage,Glen Ellyn,IL,60137-6599,4,5,-88.071635,41.841577
East-West University,Chicago,IL,60605,2,1,-87.624793,41.871309
Eastern Illinois University,Charleston,IL,61920,3,3,-88.175658,39.479843
Elgin Community College,Elgin,IL,60123-7193,3,4,-88.32194,42.018066
Elmhurst University,Elmhurst,IL,60126-3296,2,2,-87.945369,41.897164
Eureka College,Eureka,IL,61530,2,1,-89.269624,40.71482
"First Institute of Travel, Inc.",Crystal Lake,IL,60014,-2,1,-88.339468,42.21926
Fox College,Tinley Park,IL,60477,2,1,-87.785169,41.563842
Garrett-Evangelical Theological Seminary,Evanston,IL,60201-3298,1,1,-87.675497,42.056221
Gem City College,Quincy,IL,62301,-2,1,-91.404218,39.926394
Governors State University,University Park,IL,60484,3,2,-87.716441,41.449103
Graham Hospital School of Nursing,Canton,IL,61520-2497,-2,1,-90.038776,40.552962
Greenville University,Greenville,IL,62246,2,2,-89.40824,38.894162
G Skin & Beauty Institute,Schaumburg,IL,60195,-2,1,-88.083218,42.061983
Hair Professionals Career College,Sycamore,IL,60178,-2,1,-88.718145,41.962221
Hair Professionals School of Cosmetology,Oswego,IL,60543,-2,1,-88.364727,41.682591
Hebrew Theological College,Skokie,IL,60077,1,1,-87.760874,42.010103
Highland Community College,Freeport,IL,61032-9341,2,2,-89.67342,42.283344
Rosalind Franklin University of Medicine and Science,North Chicago,IL,60064-3095,2,2,-87.859632,42.300069
University of Illinois Chicago,Chicago,IL,60607,4,5,-87.650503,41.871837
Benedictine University,Lisle,IL,60532-0900,3,2,-88.097307,41.777569
Illinois College of Optometry,Chicago,IL,60616-3878,2,1,-87.623016,41.835447
University of Illinois Urbana-Champaign,Champaign,IL,61820-5711,5,5,-88.229114,40.104718
Illinois Wesleyan University,Bloomington,IL,61702-2900,2,2,-88.992014,40.489901
Illinois Central College,East Peoria,IL,61635-0001,3,3,-89.52485,40.707235
Illinois College,Jacksonville,IL,62650-2299,2,1,-90.246171,39.7313
Illinois Eastern Community Colleges,Olney,IL,62450,2,2,-88.081976,38.729684
Illinois Institute of Technology,Chicago,IL,60616,3,3,-87.627321,41.8313
Illinois State University,Normal,IL,61790-1000,4,5,-88.990058,40.509403
Illinois Valley Community College,Oglesby,IL,61348-9692,2,2,-89.100887,41.30744
Institute for Clinical Social Work,Chicago,IL,60640-1229,1,1,-87.662806,41.972414
John A Logan College,Carterville,IL,62918-2500,3,2,-89.09021,37.747453
John Wood Community College,Quincy,IL,62305-8736,2,2,-91.335828,39.913741
Joliet Junior College,Joliet,IL,60431-8938,4,4,-88.180985,41.500535
Judson University,Elgin,IL,60123-1498,2,1,-88.291336,42.061754
Kankakee Community College,Kankakee,IL,60901,2,2,-87.851047,41.098178
Kaskaskia College,Centralia,IL,62801,3,2,-89.191974,38.562112
Kishwaukee College,Malta,IL,60150-9699,2,2,-88.880524,41.938234
Knox College,Galesburg,IL,61401,2,2,-90.373165,40.943064
Educators of Beauty College of Cosmetology-Peru,PERU,IL,61354-1450,-2,1,-89.118454,41.354338
College of Lake County,Grayslake,IL,60030-1198,4,4,-88.012291,42.354164
Lake Forest College,Lake Forest,IL,60045-2338,2,2,-87.827454,42.249574
Lake Forest Graduate School of Management,Lake Forest,IL,60045,1,1,-87.893204,42.243432
Lake Land College,Mattoon,IL,61938,3,2,-88.380835,39.416969
Lakeview College of Nursing,Danville,IL,61832,1,1,-87.644379,40.13855
Lewis and Clark Community College,Godfrey,IL,62035,3,2,-90.194405,38.951624
Lewis University,Romeoville,IL,60446-2200,3,3,-88.079032,41.605432
Lincoln Christian University,Lincoln,IL,62656-2111,2,-2,-89.346721,40.148924
Lincoln Land Community College,Springfield,IL,62794-9256,3,3,-89.611249,39.721211
Lincoln College of Technology-Melrose Park,Melrose Park,IL,60160-1605,2,2,-87.832162,41.905577
Loyola University Chicago,Chicago,IL,60660,3,4,-87.656872,42.000765
Lutheran School of Theology at Chicago,Chicago,IL,60615,1,1,-87.585989,41.797895
Trinity College of Nursing & Health Sciences,Rock Island,IL,61201-5317,1,1,-90.568862,41.484924
Steven Papageorge Hair Academy,Chicago,IL,60625,-2,1,-87.713577,41.968291
Generations College,Chicago,IL,60602-4405,1,1,-87.626675,41.881773
McCormick Theological Seminary,Chicago,IL,60615,1,1,-87.585989,41.797895
McHenry County College,Crystal Lake,IL,60012-2761,3,3,-88.368956,42.259111
McKendree University,Lebanon,IL,62254-1291,2,2,-89.816822,38.608154
Meadville Theological School of Lombard College,Chicago,IL,60601,1,1,-87.62671,41.885452
Methodist College,Peoria,IL,61615,2,1,-89.682864,40.7804
Millikin University,Decatur,IL,62522-2084,2,2,-88.976298,39.842612
Monmouth College,Monmouth,IL,61462-1998,2,1,-90.63731,40.914824
Moody Bible Institute,Chicago,IL,60610-3284,2,2,-87.633459,41.897822
Moraine Valley Community College,Palos Hills,IL,60465-0937,3,4,-87.836915,41.694613
Morrison Institute of Technology,Morrison,IL,61270-2959,1,1,-89.965963,41.7971
Morton College,Cicero,IL,60804-4398,3,2,-87.762306,41.824303
National Louis University,Chicago,IL,60603,3,3,-87.624699,41.880093
National University of Health Sciences,Lombard,IL,60148-4583,2,1,-88.013171,41.861697
Cosmetology Concepts Niles,Niles,IL,60714,-2,1,-87.815113,42.027601
North Central College,Naperville,IL,60540,2,2,-88.14279,41.77576
North Park University,Chicago,IL,60625-4895,2,2,-87.709948,41.975268
Northern Baptist Theological Seminary,Lisle,IL,60532-1348,1,1,-88.056162,41.809104
Northern Illinois University,Dekalb,IL,60115-2828,3,4,-88.766428,41.933869
Northwestern University,Evanston,IL,60208,4,5,-87.679858,42.050356
Northeastern Illinois University,Chicago,IL,60625-4699,3,3,-87.718983,41.980399
Oakton College,Des Plaines,IL,60016-1268,3,3,-87.880644,42.061893
Oehrlein School of Cosmetology,East Peoria,IL,61611,-2,1,-89.55712,40.665832
Olivet Nazarene University,Bourbonnais,IL,60914-2271,3,2,-87.875165,41.155237
Parkland College,Champaign,IL,61821-1899,3,3,-88.290359,40.131963
Prairie State College,Chicago Heights,IL,60411-8226,3,2,-87.638943,41.525316
Principia College,Elsah,IL,62028-9799,1,1,-90.350285,38.948835
Professional's Choice Hair Design Academy,Joliet,IL,60435,-2,1,-88.148846,41.523122
Quincy University,Quincy,IL,62301-2699,2,2,-91.385975,39.938898
Rend Lake College,Ina,IL,62846,2,2,-88.918283,38.131481
Richland Community College,Decatur,IL,62521-8513,2,2,-88.894125,39.883887
Rock Valley College,Rockford,IL,61114-5699,3,3,-88.993544,42.306174
Rockford University,Rockford,IL,61108-2311,2,2,-89.019536,42.270639
Roosevelt University,Chicago,IL,60605-1394,3,2,-87.624952,41.876055
Dominican University,River Forest,IL,60305,2,2,-87.823003,41.902678
Rush University,Chicago,IL,60612,2,2,-87.668581,41.874742
Saint Francis Medical Center College of Nursing,Peoria,IL,61603-3783,1,1,-89.590322,40.701241
University of St Francis,Joliet,IL,60435-6188,3,2,-88.096057,41.532225
St. John's College-Department of Nursing,Springfield,IL,62702,1,1,-89.64532,39.807602
Saint Xavier University,Chicago,IL,60655,3,2,-87.714749,41.707199
University of Illinois Springfield,Springfield,IL,62703-5407,3,2,-89.616796,39.729524
Sauk Valley Community College,Dixon,IL,61021-9112,2,2,-89.596483,41.817659
Shawnee Community College,Ullin,IL,62992,2,2,-89.03352,37.270198
St. Augustine College,Chicago,IL,60640-3501,2,1,-87.662806,41.972414
University of Saint Mary of the Lake,Mundelein,IL,60060-1174,1,1,-88.000262,42.280702
Southeastern Illinois College,Harrisburg,IL,62946,2,2,-88.436631,37.75174
National Latino Education Institute,Chicago,IL,60609-2205,-2,-1,-87.675917,41.822756
Spertus College,Chicago,IL,60605,1,1,-87.624785,41.873881
Spoon River College,Canton,IL,61520-8622,2,2,-90.07233,40.527991
Saint Anthony College of Nursing,Rockford,IL,61114,1,1,-88.991968,42.310147
Educators of Beauty College of Cosmetology-Sterling,Sterling,IL,61081-3611,-2,1,-89.692522,41.788581
Southern Illinois University-Carbondale,Carbondale,IL,62901-4512,3,4,-89.217273,37.714193
Southern Illinois University Edwardsville,Edwardsville,IL,62026-1259,3,4,-89.997779,38.793949
Southern Illinois University-System Office,Carbondale,IL,62901-6801,-2,-2,-89.232216,37.706473
Taylor Business Institute,Chicago,IL,60602,1,1,-87.626675,41.881773
Telshe Yeshiva-Chicago,Chicago,IL,60625,1,1,-87.71755,41.975536
South Suburban College,South Holland,IL,60473-1200,3,2,-87.619123,41.606427
Trinity Christian College,Palos Heights,IL,60463-0929,2,1,-87.783973,41.667687
Trinity International University-Illinois,Deerfield,IL,60015-1283,2,1,-87.880851,42.197945
Triton College,River Grove,IL,60171-1995,3,3,-87.841056,41.916082
University of Spa & Cosmetology Arts,Springfield,IL,62704,-2,1,-89.710839,39.76672
University of Illinois System Offices,Urbana,IL,61801,-2,-2,-88.228234,40.108253
VanderCook College of Music,Chicago,IL,60616-3731,2,1,-87.629138,41.836833
Waubonsee Community College,Sugar Grove,IL,60554-9454,3,3,-88.459925,41.795955
Western Illinois University,Macomb,IL,61455,3,3,-90.686899,40.468086
Wheaton College,Wheaton,IL,60187-5593,2,2,-88.099643,41.870176
William Rainey Harper College,Palatine,IL,60067-7398,4,4,-88.072811,42.081829
Anderson University,Anderson,IN,46012-3495,2,2,-85.664315,40.112768
Ball State University,Muncie,IN,47306,4,5,-85.409043,40.203431
Bethel University,Mishawaka,IN,46545-5591,2,2,-86.194686,41.678399
Butler University,Indianapolis,IN,46208,3,3,-86.172167,39.8374
Calumet College of Saint Joseph,Whiting,IN,46394,2,1,-87.494123,41.671008
Christian Theological Seminary,Indianapolis,IN,46208-3301,1,1,-86.178551,39.832673
College of Court Reporting Inc,Valparaiso,IN,46385,1,1,-87.066331,41.467574
Concordia Theological Seminary,Fort Wayne,IN,46825-4996,1,1,-85.10994,41.139321
Tricoci University of Beauty Culture-Highland,Highland,IN,46322,-2,1,-87.467018,41.555885
DePauw University,Greencastle,IN,46135-1772,2,2,-86.860363,39.640904
Don Roberts School of Hair Design,Schererville,IN,46375,-2,1,-87.447089,41.485532
Earlham College,Richmond,IN,47374-4095,2,1,-84.915037,39.823431
University of Evansville,Evansville,IN,47722,2,2,-87.531644,37.971549
Franklin College,Franklin,IN,46131-2623,2,1,-86.047182,39.478298
Goshen College,Goshen,IN,46526-4794,2,1,-85.827795,41.563582
Grace College and Theological Seminary,Winona Lake,IN,46590-1274,2,2,-85.814228,41.22595
Hanover College,Hanover,IN,47243,2,2,-85.460051,38.715642
J Michael Harrold Beauty Academy,Terre Haute,IN,47807,-2,1,-87.383391,39.470359
Holy Cross College,Notre Dame,IN,46556-0308,1,1,-86.253822,41.698996
PJ's College of Cosmetology-Clarksville,Clarksville,IN,47129,-2,1,-85.768914,38.3121
Huntington University,Huntington,IN,46750,2,2,-85.497317,40.898152
Ivy Tech Community College,Indianapolis,IN,46208-5752,5,5,-86.158213,39.803753
Purdue University Fort Wayne,Fort Wayne,IN,46805-1499,3,3,-85.108962,41.117278
Indiana University-Indianapolis,Indianapolis,IN,46202-5143,4,5,-86.172217,39.772948
University of Indianapolis,Indianapolis,IN,46227-3697,3,3,-86.133969,39.709571
Indiana Institute of Technology,Fort Wayne,IN,46803-1228,2,2,-85.116479,41.078365
University of Southern Indiana,Evansville,IN,47712,3,3,-87.677214,37.962374
Indiana State University,Terre Haute,IN,47809,3,3,-87.407846,39.469073
Indiana University-Kokomo,Kokomo,IN,46902-9003,3,2,-86.132048,40.460062
Indiana University-South Bend,South Bend,IN,46615-7111,3,2,-86.221991,41.665324
Indiana University-Bloomington,Bloomington,IN,47405-7000,5,5,-86.526559,39.16609
Indiana University-Northwest,Gary,IN,46408-1197,3,2,-87.337249,41.557324
Indiana University-Southeast,New Albany,IN,47150,3,2,-85.819985,38.345191
Indiana University-East,Richmond,IN,47374-1289,3,2,-84.881923,39.868707
International Business College-Indianapolis,Indianapolis,IN,46256-3954,1,1,-86.041648,39.885628
Taylor Institute of Cosmetology II,Knox,IN,46534,-2,1,-86.618158,41.287712
Tricoci University of Beauty Culture-Lafayette,Lafayette,IN,47901,-2,1,-86.887007,40.419818
Lincoln College of Technology-Indianapolis,Indianapolis,IN,46268,2,2,-86.246276,39.884503
Manchester University,North Manchester,IN,46962,2,2,-85.762249,41.01154
Marian University,Indianapolis,IN,46222-1997,3,2,-86.202643,39.813233
Indiana Wesleyan University-Marion,Marion,IN,46953-4974,2,2,-85.667503,40.517937
Martin University,Indianapolis,IN,46218-0567,1,1,-86.103953,39.798144
Anabaptist Mennonite Biblical Seminary,Elkhart,IN,46517-1999,1,1,-85.972165,41.656013
Mid-America College of Funeral Service,Jeffersonville,IN,47130,1,1,-85.744696,38.31209
West Michigan College of Barbering and Beauty,Kalamazoo,MI,49008,-2,1,-85.590244,42.259329
University of Notre Dame,Notre Dame,IN,46556,3,4,-86.238959,41.703058
Oakland City University,Oakland City,IN,47660-1099,2,1,-87.35144,38.340891
PJ's College of Cosmetology-Richmond,Richmond,IN,47374,-2,1,-84.842601,39.83227
Ravenscroft Beauty College,Fort Wayne,IN,46835,-2,1,-85.046078,41.121802
Rogers Academy of Hair Design,Evansville,IN,47708,-2,1,-87.572366,37.970675
Rose-Hulman Institute of Technology,Terre Haute,IN,47803-3920,2,2,-87.326749,39.483602
University of Saint Francis-Fort Wayne,Fort Wayne,IN,46808-3994,2,2,-85.177246,41.087205
Saint Mary-of-the-Woods College,Saint Mary of the Woods,IN,47876-1099,2,2,-87.463791,39.508546
Saint Mary's College,Notre Dame,IN,46556,2,2,-86.256947,41.707274
Saint Meinrad School of Theology,St. Meinrad,IN,47577,1,1,-86.810388,38.165546
Saint Elizabeth School of Nursing,Lafayette,IN,47904-9988,-2,1,-86.88083,40.427401
Taylor University,Upland,IN,46989-1001,2,2,-85.497034,40.456246
Trine University,Angola,IN,46703-1764,3,2,-85.008009,41.632502
Valparaiso University,Valparaiso,IN,46383,2,2,-87.040172,41.462239
Vincennes Beauty College,Vincennes,IN,47591,-2,1,-87.53241,38.679739
Vincennes University,Vincennes,IN,47591,3,4,-87.523407,38.686318
Wabash College,Crawfordsville,IN,47933-0352,2,1,-86.906,40.037588
Allen College,Waterloo,IA,50703-1999,2,1,-92.340148,42.530084
Briar Cliff University,Sioux City,IA,51104,2,1,-96.428444,42.526443
Buena Vista University,Storm Lake,IA,50588,2,2,-95.208529,42.642255
Capri College-Dubuque,Dubuque,IA,52001,-2,1,-90.665565,42.497357
Capri College-Cedar Rapids,Cedar Rapids,IA,52404,-2,1,-91.710201,41.960734
Central College,Pella,IA,50219,2,2,-92.922199,41.401539
Clarke University,Dubuque,IA,52001-3198,2,1,-90.690487,42.509475
Coe College,Cedar Rapids,IA,52402-5092,2,2,-91.658192,41.988263
Cornell College,Mount Vernon,IA,52314,2,2,-91.423741,41.924554
Des Moines Area Community College,Ankeny,IA,50023-3993,4,5,-93.611597,41.707348
Divine Word College,Epworth,IA,52045,1,1,-90.934578,42.441721
Dordt University,Sioux Center,IA,51250-1606,2,2,-96.166562,43.082527
Drake University,Des Moines,IA,50311-4505,3,2,-93.652163,41.60129
University of Dubuque,Dubuque,IA,52001,2,2,-90.693428,42.49726
Ellsworth Community College,Iowa Falls,IA,50126,2,1,-93.265853,42.527524
Emmaus Bible College,Dubuque,IA,52001-3096,1,1,-90.706011,42.508307
Eastern Iowa Community College District,Davenport,IA,52801-1221,3,3,-90.574459,41.522179
Faith Baptist Bible College and Theological Seminary,Ankeny,IA,50023-2152,2,1,-93.624422,41.737082
Graceland University-Lamoni,Lamoni,IA,50140,2,2,-93.924893,40.615966
Grand View University,Des Moines,IA,50316,2,2,-93.600954,41.620039
Grinnell College,Grinnell,IA,50112-1690,2,2,-92.722094,41.747952
Orion Technical College,Davenport,IA,52807,1,1,-90.528333,41.56056
Hawkeye Community College,Waterloo,IA,50701,3,3,-92.330633,42.430003
American Hair Academy,Mt. Pleasant,IA,52641,-2,1,-91.524949,40.962643
Indian Hills Community College,Ottumwa,IA,52501,3,2,-92.394736,41.045105
Iowa Central Community College,Fort Dodge,IA,50501,3,2,-94.20299,42.490067
Iowa Lakes Community College,Estherville,IA,51334-2295,2,2,-94.835661,43.401376
UnityPoint Health-Des Moines School of Radiologic Technology,Des Moines,IA,50309-1453,-2,1,-93.635129,41.590094
Iowa School of Beauty-Des Moines,Des Moines,IA,50322-3203,-2,1,-93.711628,41.624684
Iowa State University,Ames,IA,50011-2103,4,5,-93.648504,42.026212
Iowa Western Community College,Council Bluffs,IA,51503-1057,3,3,-95.797975,41.272168
University of Iowa,Iowa City,IA,52242-1316,4,5,-91.536425,41.661935
Kirkwood Community College,Cedar Rapids,IA,52406-2068,3,4,-91.651172,41.911268
La James International College-Cedar Falls,Cedar Falls,IA,50613,-2,1,-92.434496,42.515026
La James International College-Johnston,Johnston,IA,50131,-2,1,-93.738577,41.661015
La James College of Hairstyling and Cosmetology,Mason City,IA,50401-3308,-2,1,-93.199881,43.153786
La James International College-Ft Dodge,Fort Dodge,IA,50501,-2,1,-94.163856,42.5005
Loras College,Dubuque,IA,52004-0178,2,2,-90.679023,42.503908
Luther College,Decorah,IA,52101-1045,2,2,-91.802809,43.312304
Maharishi International University,Fairfield,IA,52557,2,2,-91.967306,41.017781
Marshalltown Community College,Marshalltown,IA,50158,2,2,-92.909411,42.00065
Mercy College of Health Sciences,Des Moines,IA,50309-1239,2,1,-93.626238,41.594559
Morningside University,Sioux City,IA,51106-1751,2,2,-96.359464,42.473891
Mount Mercy University,Cedar Rapids,IA,52402-4797,2,2,-91.650991,42.001931
Ashford University,San Diego,CA,92123,5,5,-117.141961,32.8273
North Iowa Area Community College,Mason City,IA,50401,2,2,-93.13126,43.157169
University of Northern Iowa,Cedar Falls,IA,50614-0005,3,3,-92.459703,42.514923
Northwestern College,Orange City,IA,51041,2,2,-96.058772,42.999007
Northeast Iowa Community College,Calmar,IA,52132-0400,3,2,-91.867105,43.17523
Northwest Iowa Community College,Sheldon,IA,51201,2,2,-95.880639,43.184701
Des Moines University-Osteopathic Medical Center,West Des Moines,IA,50266,2,2,-93.81733,41.54124
Palmer College of Chiropractic,Davenport,IA,52803-5287,2,2,-90.574607,41.529021
PCI Academy-Ames,Ames,IA,50010,-2,1,-93.613611,41.99767
Saint Ambrose University,Davenport,IA,52803-2898,2,2,-90.579854,41.54065
St Luke's College,Sioux City,IA,51104-0263,1,1,-96.404724,42.520081
La James International College-Davenport,Davenport,IA,52806,-2,1,-90.5682,41.572861
Simpson College,Indianola,IA,50125,2,2,-93.563471,41.365503
Southeastern Community College,West Burlington,IA,52655-0180,2,2,-91.171881,40.814496
Southwestern Community College,Creston,IA,50801,2,2,-94.380906,41.073437
Capri College-Davenport,Davenport,IA,52807-3003,-2,1,-90.538828,41.575211
Iowa School of Beauty-Sioux City,Sioux City,IA,51106,-2,1,-96.365842,42.441812
SOHO Hair Academy,Council Bluffs,IA,51501,-2,1,-95.858073,41.235617
Upper Iowa University,Fayette,IA,52142-1857,3,2,-91.799543,42.838283
Waldorf University,Forest City,IA,50436-1713,3,2,-93.641714,43.262923
Wartburg College,Waverly,IA,50677-0903,2,2,-92.483387,42.7277
Wartburg Theological Seminary,Dubuque,IA,52003-7769,1,1,-90.691225,42.485761
The Salon Professional Academy-Cedar Falls,Cedar Falls,IA,50613,-2,1,-92.433262,42.511022
Western Iowa Tech Community College,Sioux City,IA,51102-5199,3,3,-96.348874,42.482953
William Penn University,Oskaloosa,IA,52577,2,2,-92.647095,41.310111
Allen County Community College,Iola,KS,66749,2,2,-95.396377,37.938038
Baker University,Baldwin City,KS,66006-0065,2,2,-95.187346,38.778712
Barton County Community College,Great Bend,KS,67530,3,3,-98.731648,38.403529
Benedictine College,Atchison,KS,66002-1499,2,2,-95.113858,39.573079
Bethany College,Lindsborg,KS,67456-1897,2,1,-97.67367,38.580598
Bethel College-North Newton,North Newton,KS,67117-1716,2,1,-97.343256,38.075169
Butler Community College,El Dorado,KS,67042-3280,3,3,-96.882987,37.806699
Central Christian College of Kansas,McPherson,KS,67460-5740,2,1,-97.668597,38.357978
Cloud County Community College,Concordia,KS,66901-3108,2,2,-97.664147,39.554199
Coffeyville Community College,Coffeyville,KS,67337,2,2,-95.621374,37.033814
Colby Community College,Colby,KS,67701,2,2,-101.052744,39.377601
Cowley County Community College,Arkansas City,KS,67005,2,2,-97.043075,37.061668
Dodge City Community College,Dodge City,KS,67801-2399,2,2,-100.037481,37.776891
Donnelly College,Kansas City,KS,66102,2,1,-94.649827,39.112346
Emporia State University,Emporia,KS,66801-5415,3,2,-96.179021,38.414784
Flint Hills Technical College,Emporia,KS,66801-5957,2,2,-96.224141,38.41888
Fort Hays State University,Hays,KS,67601-4099,3,4,-99.342503,38.872156
Barclay College,Haviland,KS,67059-0288,1,1,-99.105351,37.62012
Friends University,Wichita,KS,67213,2,2,-97.367048,37.678459
Fort Scott Community College,Fort Scott,KS,66701,2,2,-94.715334,37.816206
Garden City Community College,Garden City,KS,67846-6333,2,2,-100.84916,37.970514
Haskell Indian Nations University,Lawrence,KS,66046-4800,2,1,-95.232879,38.938834
Hays Academy of Hair Design,Hays,KS,67601,-2,1,-99.310623,38.884873
Hesston College,Hesston,KS,67062-2093,1,1,-97.433883,38.134558
Highland Community College,Highland,KS,66035-4165,2,2,-95.271539,39.859987
Hutchinson Community College,Hutchinson,KS,67501,3,3,-97.92135,38.068035
Independence Community College,Independence,KS,67301-0708,2,1,-95.720518,37.195614
Johnson County Community College,Overland Park,KS,66210-1299,4,4,-94.727798,38.924125
Concorde Career College-Kansas City,Kansas City,MO,64114,2,1,-94.602584,38.936103
Kansas City Kansas Community College,Kansas City,KS,66112,3,3,-94.748061,39.121911
Kansas Christian College,Overland Park,KS,66204-1975,1,1,-94.666878,38.994848
University of Kansas,Lawrence,KS,66045,4,5,-95.247567,38.958549
Newman University,Wichita,KS,67213-2097,2,2,-97.37768,37.672643
Old Town Barber College,Wichita,KS,67211-1605,-2,1,-97.323179,37.68586
Kansas State University,Manhattan,KS,66506,4,5,-96.581077,39.188648
Kansas Wesleyan University,Salina,KS,67401-6146,2,2,-97.607973,38.813795
Washburn Institute of Technology,Topeka,KS,66604,-2,2,-95.751158,39.04497
Labette Community College,Parsons,KS,67357-4201,2,2,-95.255368,37.339062
Manhattan Area Technical College,Manhattan,KS,66503-2499,2,1,-96.615672,39.197774
Manhattan Christian College,Manhattan,KS,66502-4801,1,1,-96.579383,39.184806
McPherson College,McPherson,KS,67460-1402,2,1,-97.642996,38.371422
MidAmerica Nazarene University,Olathe,KS,66062-1899,2,2,-94.781526,38.875244
Neosho County Community College,Chanute,KS,66720,2,2,-95.464976,37.670672
Fort Hays Tech North Central,Beloit,KS,67420,2,1,-98.110826,39.482419
Fort Hays State University-Northwest Kansas Technical College,Goodland,KS,67735,2,1,-101.70022,39.346424
Ottawa University-Ottawa,Ottawa,KS,66067-3399,2,1,-95.264187,38.603173
Ottawa University-Kansas City,Overland Park,KS,66211,2,1,-94.635461,38.932055
Pittsburg State University,Pittsburg,KS,66762,3,3,-94.702473,37.392071
Pratt Community College,Pratt,KS,67124,2,2,-98.714538,37.654451
University of Saint Mary,Leavenworth,KS,66048-5082,2,2,-94.906743,39.279396
Salina Area Technical College,Salina,KS,67401,2,2,-97.636892,38.793582
Seward County Community College,Liberal,KS,67901,2,2,-100.917695,37.059807
Southwestern College,Winfield,KS,67156-2499,2,2,-96.975405,37.248608
Sterling College,Sterling,KS,67579,2,1,-98.208644,38.219937
Tabor College,Hillsboro,KS,67063-1799,2,1,-97.199773,38.34858
Washburn University,Topeka,KS,66621,3,3,-95.702222,39.033778
Wichita State University-Campus of Applied Sciences and Technology,Wichita,KS,67226,3,3,-97.224151,37.75764
Wichita State University,Wichita,KS,67260-0124,3,4,-97.292361,37.718882
Wichita Technical Institute,Wichita,KS,67213-1927,-2,1,-97.371819,37.656976
Alice Lloyd College,Pippa Passes,KY,41844,2,1,-82.875068,37.335087
Asbury University,Wilmore,KY,40390-1198,2,2,-84.662606,37.862029
Asbury Theological Seminary,Wilmore,KY,40390-1199,2,2,-84.660127,37.861561
Ashland Community and Technical College,Ashland,KY,41101-3683,2,2,-82.650664,38.469201
Bellarmine University,Louisville,KY,40205-0671,2,2,-85.704997,38.219279
Berea College,Berea,KY,40404-2182,2,2,-84.292893,37.57202
PJ's College of Cosmetology-Bowling Green,Bowling Green,KY,42101,-2,1,-86.469756,36.979195
Southcentral Kentucky Community and Technical College,Bowling Green,KY,42101-3601,3,3,-86.476717,36.984827
Brescia University,Owensboro,KY,42301-3023,2,1,-87.111639,37.769041
Campbellsville University,Campbellsville,KY,42718-2799,3,4,-85.348943,37.343342
Bluegrass Community and Technical College,Lexington,KY,40508,3,4,-84.499928,38.061375
Centre College,Danville,KY,40422-1394,2,2,-84.779392,37.645709
Clear Creek Baptist Bible College,Pineville,KY,40977-9752,1,1,-83.727702,36.725236
Paul Mitchell the School-Lexington,Lexington,KY,40514,-2,1,-84.548281,37.980361
Galen College of Nursing-Louisville,Louisville,KY,40245,3,3,-85.499039,38.281333
University of the Cumberlands,Williamsburg,KY,40769,4,5,-84.161646,36.737048
Eastern Kentucky University,Richmond,KY,40475-3102,3,4,-84.300796,37.740845
Elizabethtown Community and Technical College,Elizabethtown,KY,42701-3081,3,3,-85.879927,37.692858
Frontier Nursing University,Versailles,KY,40383,2,2,-84.692791,38.051018
Georgetown College,Georgetown,KY,40324-1696,2,2,-84.553767,38.207615
PJ's College of Cosmetology-Glasgow,Glasgow,KY,42141,-2,1,-85.922275,37.012713
Hazard Community and Technical College,Hazard,KY,41701-2402,2,2,-83.175644,37.234897
Paul Mitchell the School-Louisville,Louisville,KY,40222,-2,1,-85.578849,38.24897
Henderson Community College,Henderson,KY,42420-4699,2,2,-87.650091,37.797687
Hopkinsville Community College,Hopkinsville,KY,42240,2,2,-87.488297,36.882654
Jefferson Community and Technical College,Louisville,KY,40202,3,4,-85.753615,38.246027
Summit Salon Academy-Lexington,Lexington,KY,40505,-2,1,-84.453521,38.028451
American National University-Pikeville,Pikeville,KY,41501-1520,1,1,-82.528212,37.472423
Kentucky Mountain Bible College,Jackson,KY,41339,1,1,-83.438765,37.603443
Kentucky State University,Frankfort,KY,40601-2355,2,2,-84.855402,38.201427
Kentucky Wesleyan College,Owensboro,KY,42301,2,1,-87.119658,37.744489
University of Kentucky,Lexington,KY,40506-0032,4,5,-84.504747,38.038911
Kentucky Christian University,Grayson,KY,41143-1199,2,1,-82.945561,38.338805
Lexington Theological Seminary,Lexington,KY,40503,1,1,-84.526079,37.996332
Lindsey Wilson College,Columbia,KY,42728-1223,2,2,-85.299997,37.101502
University of Louisville,Louisville,KY,40292-0001,4,5,-85.760412,38.216862
Louisville Presbyterian Theological Seminary,Louisville,KY,40205-1798,1,1,-85.686411,38.237056
Madisonville Community College,Madisonville,KY,42431,3,2,-87.512137,37.362661
Maysville Community and Technical College,Maysville,KY,41056,3,2,-83.806786,38.626607
Midway University,Midway,KY,40347-1120,2,2,-84.678142,38.146126
Morehead State University,Morehead,KY,40351,3,3,-83.434021,38.186768
Murray State University,Murray,KY,42071-3318,3,4,-88.323629,36.612419
Gateway Community and Technical College,Florence,KY,41042,3,3,-84.633478,38.960638
Northern Kentucky University,Highland Heights,KY,41099,3,4,-84.463483,39.029714
West Kentucky Community and Technical College,Paducah,KY,42001,3,3,-88.658762,37.054081
University of Pikeville,Pikeville,KY,41501,2,2,-82.521063,37.479232
Big Sandy Community and Technical College,Prestonsburg,KY,41653,2,2,-82.778847,37.688248
Empire Beauty School-Chenoweth,Louisville,KY,40207,-2,1,-85.65752,38.255764
Empire Beauty School-Elizabethtown,Elizabethtown,KY,42701,-2,1,-85.878557,37.697453
Empire Beauty School-Dixie,Louisville,KY,40216,-2,1,-85.830866,38.167059
Empire Beauty School-Florence,Florence,KY,41042,-2,1,-84.628998,39.009553
Somerset Community College,Somerset,KY,42501-2973,3,3,-84.617546,37.059599
Southeast Kentucky Community & Technical College,Cumberland,KY,40823,2,2,-82.997661,36.966051
The Southern Baptist Theological Seminary,Louisville,KY,40280-0001,3,2,-85.687649,38.248216
Spalding University,Louisville,KY,40203-2188,2,2,-85.757725,38.242407
Sullivan University,Louisville,KY,40205,2,2,-85.670489,38.212824
Thomas More University,Crestview Hills,KY,41017-3495,2,2,-84.568923,39.022963
Transylvania University,Lexington,KY,40508-1797,2,2,-84.493202,38.052983
Kentucky Community and Technical College System,Versailles,KY,40383-1245,-2,-2,-84.72788,38.058771
Union Commonwealth University,Barbourville,KY,40906-1499,2,2,-83.888477,36.870875
Western Kentucky University,Bowling Green,KY,42101-1000,3,4,-86.456828,36.985035
Central Louisiana Technical Community College,Alexandria,LA,71301,2,2,-92.446693,31.310461
Ayers Career College,Shreveport,LA,71118,-2,1,-93.798229,32.418291
Baton Rouge General Medical Center School of Nursing & School of Radiologic Technology,Baton Rouge,LA,70806,-2,1,-91.152502,30.447919
Bossier Parish Community College,Bossier City,LA,71111-6922,3,3,-93.646881,32.539551
Centenary College of Louisiana,Shreveport,LA,71104,2,1,-93.730834,32.483335
Cloyd's Beauty School 1 Inc,West Monroe,LA,71291-0603,-2,1,-92.126506,32.499976
Crescent City Bartending School,New Orleans,LA,70119,-2,1,-90.086679,29.966842
Delgado Community College,New Orleans,LA,70119,3,4,-90.103962,29.985149
Avery James College,Lake Charles,LA,70601,-2,1,-93.219712,30.202601
Denham Springs Beauty School,Denham Springs,LA,70726,-2,1,-90.944774,30.484636
Dillard University,New Orleans,LA,70122,2,2,-90.06464,29.996587
Nunez Community College,Chalmette,LA,70043,2,2,-89.95888,29.95419
Grambling State University,Grambling,LA,71245,3,3,-92.713245,32.523797
Belbo Beauty Institute,Shreveport,LA,71105,-2,1,-93.706628,32.485759
ITI Technical College,Baton Rouge,LA,70817,2,1,-91.030485,30.369764
John Jay Beauty College,Kenner,LA,70062,-2,1,-90.230259,30.007684
Louisiana State University Health Sciences Center-New Orleans,New Orleans,LA,70112-2223,2,2,-90.083145,29.957272
Louisiana State University-Alexandria,Alexandria,LA,71302-9121,3,3,-92.414409,31.178616
Louisiana State University and Agricultural & Mechanical College,Baton Rouge,LA,70803-2750,4,5,-91.178921,30.414986
Louisiana State University-Eunice,Eunice,LA,70535,2,2,-92.434523,30.473292
Louisiana State University-Shreveport,Shreveport,LA,71115-2399,3,4,-93.70561,32.428465
Aveda Arts & Sciences Institute-Baton Rouge,Baton Rouge,LA,70816-2246,-2,1,-91.054583,30.425932
Aveda Arts & Sciences Institute-Lafayette,Lafayette,LA,70503-3246,-2,1,-92.042092,30.206168
Louisiana Academy of Beauty,Eunice,LA,70535,-2,1,-92.408948,30.495111
Louisiana Christian University,Pineville,LA,71359,2,1,-92.425973,31.324528
Opelousas School of Cosmetology,Opelousas,LA,70570,-2,1,-92.077854,30.53165
Louisiana Tech University,Ruston,LA,71272,3,4,-92.649963,32.528297
Loyola University New Orleans,New Orleans,LA,70118-6143,3,2,-90.120417,29.936141
McNeese State University,Lake Charles,LA,70605,3,3,-93.217222,30.178187
University of New Orleans,New Orleans,LA,70148,3,3,-90.067142,30.027704
New Orleans Baptist Theological Seminary,New Orleans,LA,70126,2,2,-90.043439,30.004336
Nicholls State University,Thibodaux,LA,70310,3,3,-90.801571,29.794486
University of Louisiana at Monroe,Monroe,LA,71209-0000,3,3,-92.07374,32.527748
Northwest Louisiana Technical Community College,Minden,LA,71055-0000,2,2,-93.26302,32.586037
Northwestern State University of Louisiana,Natchitoches,LA,71497-0002,3,3,-93.097797,31.750666
University of Holy Cross,New Orleans,LA,70131-7399,2,1,-89.99445,29.912003
Franciscan Missionaries of Our Lady University,Baton Rouge,LA,70808,2,2,-91.110587,30.401379
Pat Goins Beauty Schools formerly Paul Mitchell the School-Shreveport,Shreveport,LA,71105,-2,-1,-93.716987,32.436926
Celebrity Stylist Beauty School,Monroe,LA,71201-5135,-2,1,-92.085347,32.52121
Pineville Beauty School,Pineville,LA,71360-0000,-2,1,-92.430903,31.325717
Aveda Arts & Sciences Institute-Covington,Covington,LA,70433,-2,2,-90.104008,30.494049
Saint Joseph Seminary College,St. Benedict,LA,70457,1,1,-90.113621,30.526778
LaSalle Tech,Houma,LA,70363,-2,1,-90.688232,29.577805
Fletcher Technical Community College,Schriever,LA,70395,2,2,-90.811707,29.690884
Remington College-Lafayette Campus,Lafayette,LA,70503,1,1,-92.059734,30.166882
Southern University-Board and System,Baton Rouge,LA,70813,-2,-2,-91.196629,30.521517
SOWELA Technical Community College,Lake Charles,LA,70615,3,2,-93.16252,30.217331
Stevensons Academy of Hair Design,New Orleans,LA,70114,-2,1,-90.052219,29.948438
Southeastern Louisiana University,Hammond,LA,70402,3,4,-90.468676,30.514652
Southern University and A & M College,Baton Rouge,LA,70813,3,3,-91.190105,30.524558
Southern University at New Orleans,New Orleans,LA,70126,2,2,-90.044912,30.026162
Southern University at Shreveport,Shreveport,LA,71107,3,2,-93.834559,32.545632
University of Louisiana at Lafayette,Lafayette,LA,70503,3,4,-92.020165,30.212191
Northshore Technical Community College,Lacombe,LA,70445,3,3,-89.899196,30.379147
Tulane University of Louisiana,New Orleans,LA,70118-5698,3,4,-90.122144,29.940069
